Name,Latitude,Longitude
Helston Road,53.751877786685149,-1.561961704797171
Bodmin Road,53.752083604420122,-1.559260131869481
Bodmin Road,53.753183006037283,-1.560037249551253
Sharp Lane School,53.749727773670152,-1.526013824513982
Broom Place,53.755506852791747,-1.519169324501888
Lea Park Drive,53.760071934968153,-1.518950357235902
Middlecroft Close,53.762377082267683,-1.517756006421877
Middlecroft Close,53.762863575879514,-1.518038651448271
Hunslet Cemetery,53.767697361071690,-1.524339973594401
Woodhouse Hill Road,53.769933309432936,-1.523814042706307
Leasowe Road,53.771985517549965,-1.522288747453059
Playfair Road,53.773447024346957,-1.530495969193225
Moor Road,53.771641863438056,-1.530865066817878
Moor Road,53.772082972252328,-1.531042222212920
Belle Isle Circus,53.765431372769633,-1.528643562912690
Middleton Road,53.757855243178049,-1.526574570445382
Lanshaw View,53.752754949992692,-1.530119979682269
Lanshaw View,53.752755840946421,-1.530347453977077
Dunlin Drive,53.751097145590009,-1.531397165537433
Winrose Drive Newhall Gate,53.757193899157294,-1.532118037088618
Winrose Drive Elmton Close,53.759765272939660,-1.532316994528748
Belle Isle Circus,53.765756895992070,-1.529140538980859
West Grange Drive,53.769205070448130,-1.530603959960592
Ring Rd Middleton,53.752955742400921,-1.526326317934964
Middleton Road,53.757217953702373,-1.526794074471654
Petersfield Avenue,53.760949885765797,-1.527267875355254
North Lingwell Road,53.751409460171239,-1.542449068804816
Waincliffe Drive,53.763159857231358,-1.564984420466930
Tommy Wass Junction,53.764800455708162,-1.561357028803279
Barkly Road,53.766920229537952,-1.556085884675503
Cross Flatts Grove,53.768339086112590,-1.553324936061230
Cross Flatts Park,53.770915133016352,-1.549974906104475
Hunslet Fire Stn,53.772829544943392,-1.547572306050247
Oakley Terrace,53.774459404466299,-1.545991926213812
Dewsbury Road Hub,53.778859355254802,-1.544882214859676
Hunslet Hall Road,53.782362368313827,-1.544267633304252
Parkfield Street,53.784827630809701,-1.542571445663325
Hunslet Hall Road,53.780322910490128,-1.544486999792568
Oakley Terrace,53.774171625526122,-1.545949509941589
Cross Flatts Park,53.769911806016438,-1.550865593930904
Cross Flatts Grove,53.767480213538185,-1.554396010557209
Tommy Wass Junction,53.763715211340177,-1.561990283863083
Waincliffe Drive,53.763461199328944,-1.563813260014931
Tommy Wass PH,53.764590342338686,-1.562891373194075
Cardinal Rd Waincliffe Place,53.765871811497362,-1.566792014024424
Old Lane Grovehall Rd,53.767596884775173,-1.564134522687683
Old Lane Moorhouse Ave,53.769306097956267,-1.564541632912345
Co-op,53.772742274480557,-1.565295076953056
Co-op,53.772759370098974,-1.565052135581102
Beeston Terminus,53.772163178510745,-1.571719060276651
Beeston Co-Op,53.773558893285895,-1.564937663544208
Cross Flatts Drive,53.775410359142576,-1.562445205742816
Cross Flatts Pk Top,53.776562343009303,-1.560399891457646
Cross Flatts Park Top,53.776848114355680,-1.559896155729515
Cemetery Rd Tempest Rd,53.777437999459075,-1.556551599211048
Malvern Road,53.779561408646615,-1.552310503953903
Lady Pit Lane,53.781076022041852,-1.551141030751387
Northcote Green,53.782276566140219,-1.550111417689434
Northcote Green,53.782150965912358,-1.550173465183734
Hunslet Hall Rd Northcote Cresc,53.781571088067047,-1.546552601143241
Cemetery Rd Beeston Road,53.778192518875734,-1.556422251828301
Cemetery Road Junction,53.781447709266018,-1.559271372125183
Top Moor Side,53.784342365634991,-1.559408003048175
Domestic Street Balm Walk,53.786443231261963,-1.561222512452429
Domestic Street Balm Walk,53.787292343794356,-1.562382367689724
Domestic Road,53.787471320322716,-1.569620464942784
Domestic Road,53.787586744603097,-1.569224652437335
Gelderd Business Pk,53.780436670046100,-1.580618810278311
Wheatsheaf Junction,53.778307577087219,-1.583508059765280
Heath Mount,53.776332767596799,-1.573998274225426
Leeds Utd Stadium,53.777229877937096,-1.570999836152999
Leeds Utd Stadium,53.777380008534635,-1.570254757207474
City Evangelical Church,53.780965213060220,-1.560050388907951
Drysalters,53.770454584986645,-1.579094843852743
Drysalters,53.769614726454854,-1.577965364935224
Moor Rd Tunstall Road,53.775111884583573,-1.537973193416964
Beza Street Tulip St,53.776580775442632,-1.536636914898341
Church St Balm Road,53.777685029137459,-1.531677839200079
Shadwell Ln Sand Hill Lane,53.846840047194469,-1.529675593374871
Shadwell Ln Ring Road,53.848397563441900,-1.528046926572172
Oakwood Clock,53.827555783439834,-1.503866531313531
Ringways Whitehall Road,53.781580751289788,-1.594447896468251
Royds Lane,53.781713896720518,-1.591305177980981
Dixon Lane,53.782207360611793,-1.585806602584106
Sheepscar St North,53.812206801456583,-1.538294562096659
Scott Hall Grove,53.821818734035638,-1.543976555104903
Stainbeck Lane,53.827879373335684,-1.547070860781805
King Lane Circus,53.839010436082553,-1.543364386496221
Scott Hall Rd Wensley View,53.832038358173747,-1.544047949442917
Potternewton Lane,53.823955312311540,-1.545669985412238
Scott Hall Grove,53.822177719940129,-1.543835943409458
Sholebroke Mount,53.818370680304710,-1.540140700391588
Sheepscar St North,53.810563146543203,-1.536262440601093
Lincoln Green Ctr,53.802782165130566,-1.527723933055663
Lincoln Green Centre,53.803118766644261,-1.528752650012557
Lincoln Green Road,53.802650327747273,-1.523929509403598
Bexley Wing,53.804557633448489,-1.522131351001032
St James's Hospital,53.805746568465679,-1.520508256129594
St James Hospital,53.807199588934225,-1.519747607236556
St James's Hospital,53.807231463846527,-1.518729829582776
Lovell Park,53.802567363398879,-1.537185717653034
North St Benson Street,53.805680506880137,-1.535708904824217
Sheepscar Junction,53.806533158122292,-1.535395789162954
Sheepscar Junction,53.807034643061442,-1.534919506618581
Roscoe Street,53.808351171843611,-1.533705275152162
Roscoe Street,53.808476880824600,-1.533673509478044
Enfield Centre,53.809363983591673,-1.530672019965852
Enfield Centre,53.809389164117754,-1.530216157380579
Fforde Grene Jct,53.818121648691914,-1.515673611017742
Roundhay Road Tesco,53.822288731863324,-1.510415163728764
Oakwood Clock,53.827246736523428,-1.505207123119620
Oakwood Clock,53.826478246128630,-1.506294823165808
Ravenscar Avenue,53.823349561641955,-1.508276047768012
Roundhay Road Tesco,53.821688916264556,-1.510999391561602
Copgrove Road,53.819274418688828,-1.514019845307681
Lascelles Terrace,53.814630891165677,-1.519298191986368
Elford Place,53.812885167077170,-1.521034323027616
Millshaw,53.766946163146329,-1.578219671126972
Rail Station,53.767703791700129,-1.586722996456652
Old Road,53.765374151182883,-1.581041890486848
Clarkson Terrace,53.763105439071417,-1.585145004500586
Daffil Road,53.759240541014073,-1.593009715129635
Laneside Farm,53.755908560760318,-1.596439249315569
Queenswood Road,53.819885667081643,-1.593850521356289
Queenswood Road,53.819749206103005,-1.593365767856826
Eden Drive,53.817318073631149,-1.589440179241147
Hyde Park Picture House,53.812087645890976,-1.569095126968432
Hyde Park Road,53.809727071434004,-1.565019061301698
Stonegate Rd Harrogate Road,53.846441291868395,-1.535759842332680
Stonegate Rd Highwood Avenue,53.845182422535928,-1.540287863372486
Stonegate Rd Queenshill Approach,53.844595862589827,-1.542026946572553
Stonegate Rd Queenshill Approach,53.844273526040759,-1.542349634331099
Leafield Close,53.842391219333806,-1.546078456764956
Leafield Close,53.841997717064615,-1.546599436912985
Parkland Drive,53.837298345258141,-1.554157060168678
Parkland Drive,53.836887958954520,-1.554981999550719
Parkside Avenue,53.831208619991976,-1.562608739223059
Northside Retail Pk,53.828980463519443,-1.565321117844260
Northside Retail Pk,53.829097687995251,-1.565426257077135
Green Road,53.828510267123079,-1.567027592069591
Green Road,53.828689800973464,-1.566964969842294
Green View,53.829684077284064,-1.568519638084990
Parkside Green,53.832653409013709,-1.566939306095426
Parkside Road,53.835732721170054,-1.563473362135783
Wharfedale Avenue,53.817499776791820,-1.549871171560978
Shaw Ln Otley Road,53.823897554540459,-1.579136989262061
Grove Lane Junction,53.824061519741065,-1.564627628102246
Meanwood Health Centre,53.826130662656233,-1.565153103301097
Woodhouse Cricket Club,53.821542156659078,-1.558957320406379
Ridge Grove,53.820355202476272,-1.556372287661906
Sugarwell Court,53.818505304696075,-1.551971719355872
Wharfedale Avenue,53.817099300476833,-1.548538843971169
Buslingthorpe Green,53.813350991191783,-1.543703923123998
Meanwood Rd Cambridge Road,53.810996939554968,-1.541557787486511
Craven Road,53.812346602903340,-1.549060687466131
Charing Cross,53.812830350030396,-1.551029844678924
Charing Cross,53.813028248895222,-1.551073293081541
St Helen's Lane,53.849496188066098,-1.592424080228476
Lawnswood Cemetery,53.846054226598866,-1.592548687487176
Weetwood Police Stn,53.840218010771878,-1.594307394153560
Low Shops Lane,53.756837619845129,-1.497374177142763
St George's Park,53.757417590120717,-1.500658563750404
Jaw Bones,53.757976293626662,-1.503169747569519
Wood Lane End,53.757739836529709,-1.504674112191543
Byron Street,53.801312723090184,-1.533494842256622
Cross Stamford St,53.805652860328230,-1.530910845782371
Grant Avenue,53.808792083808250,-1.526942688981525
Cross Stamford St,53.805669291839699,-1.530515860140327
Moortown Corner A,53.843881397364349,-1.533873131969171
Moortown Corner B,53.843304952190245,-1.533560366558612
Nunroyd Avenue,53.839991421433155,-1.534341830568375
Kingsway Court,53.838581490309963,-1.536971280483336
Leafield Grange,53.842450969502906,-1.545241920807557
Leafield Grange,53.843424506615264,-1.545991294813802
Saxon Road,53.843232940780759,-1.557270490210543
Scotland Wood Road,53.846374638313769,-1.561052415018087
Cranmer Bank,53.847503794627571,-1.557696648638205
Lingfield Centre,53.849507673987532,-1.545545494595845
St Johns Church,53.848807360786964,-1.534016042495043
Ring Rd Gelderd Road,53.777899555880921,-1.585075085495858
Ringways Ring Road,53.780905694778866,-1.594166062302166
Ring Rd Royds Lane,53.780174145417284,-1.590485478759655
Ring Rd Gelderd Road,53.777139064472372,-1.583489272754794
Fawcett Avenue,53.783868811666181,-1.595958703688387
Western Grove,53.785184224100782,-1.594231042990478
Dixon Lane Kellett Crescent,53.782963954151221,-1.586269627015589
Crown Point D,53.790369183229309,-1.539156598767445
Brookfield Street,53.787150760036994,-1.534319707719059
Stafford Street,53.782445541516260,-1.528574422726509
Church Street,53.779487333442020,-1.523736302140167
Haigh Park Road,53.770286328285138,-1.506635410207572
Intermezzo Drive,53.768369116960400,-1.503790508479427
Intermezzo Drive,53.769672482379377,-1.505990219329219
Queen Street,53.772132085465401,-1.516248387067804
Severn Road,53.778006737852273,-1.519837977542152
Balmoral Chase,53.778421600522485,-1.522443322824518
Church Street,53.780502667490175,-1.525925277188489
Stafford Street,53.782908379747944,-1.529707474266127
Brookfield Street,53.786429152391989,-1.533659872903467
Crown Point F,53.790575924928007,-1.541507117413728
Headrow F,53.798895606131786,-1.540657312787799
Headrow D,53.799100468056857,-1.542522501262406
Headrow C,53.799174336074643,-1.543037897686558
Headrow B,53.799304955128982,-1.544296617446924
Civic O,53.799507444944091,-1.550321863202232
Civic N,53.799710002484460,-1.551610213245407
Civic K,53.799613326541362,-1.547405690095270
Headrow G,53.799140015591213,-1.541110113579647
Headrow H,53.799093392866922,-1.540670334927654
Victoria A,53.798879339445612,-1.538759709700541
Victoria B,53.798851442576613,-1.538517099855727
Victoria D,53.798765701225172,-1.537257917553574
Victoria N,53.799583408875847,-1.539541478144148
Victoria P,53.798523563496168,-1.539735266938143
Victoria Q,53.798308208883810,-1.539828715893818
Corn Exchange D,53.797213110276090,-1.540205056633957
Corn Exchange B,53.796711254487590,-1.540590079297978
Corn Exchange A,53.796388453803850,-1.540790962527463
Trinity M,53.795920626148984,-1.543027702844854
Trinity N,53.795877709952464,-1.543559509677285
Trinity R,53.796029634033509,-1.543330142855792
Trinity O,53.795816643013545,-1.544045968732666
Trinity P,53.795746067772242,-1.544395899320901
Wellington D,53.796866529887517,-1.558001578634721
Wellington E,53.796894387353518,-1.558244190180045
Wellington F,53.797100153888820,-1.557983942037867
City Square G,53.797427717931285,-1.547004120768676
City Square H,53.797167075350423,-1.547006927901608
Harehills Lane Harrogate Rd,53.824369491565697,-1.531826086318508
City Square I,53.796915420433855,-1.547009638194951
Harehills Lane,53.818115661959219,-1.516417951486559
Harehills Lane,53.817420125207683,-1.515560183678035
Harehills Ln Berkeley Road,53.812601861844804,-1.513170571398460
Harehills Ln Compton Road,53.809433302870360,-1.509790396986857
Harehills Ln Compton Road,53.809712166834387,-1.509847889958435
Harehills Ln Lupton Avenue,53.805918054016360,-1.505184830577126
Five Lane Ends,53.788544806084033,-1.588673668237711
Highfield Gardens,53.788901391002604,-1.585209458292816
Highfield Gardens,53.788732459189909,-1.585742373034297
Copley Hill,53.790395385612300,-1.575495247990426
Copley Hill,53.790492262437340,-1.574932640295302
Clyde Gardens,53.791087379366509,-1.572938124788423
Clyde Approach,53.791664324701259,-1.570898199075266
Clyde Approach,53.792171186667460,-1.569375048778294
Lupton Ave Torre Lane,53.799659108173380,-1.508765645148077
Lupton Avenue Nowell Mount,53.803384302948288,-1.507583334937876
Lupton Avenue Nowell Mount,53.803563245149576,-1.507383847946482
Lupton Ave Harehills Lane,53.805931232031497,-1.506202058181900
Shakespeare Gardens,53.803823813383538,-1.518434783601061
Ashley Road,53.808752771597085,-1.517072345125222
Harehills Nice View,53.816086909064580,-1.517048833141241
Harehills Place,53.814002211249736,-1.517179100242150
Conway View,53.811548409445209,-1.517161723640978
Ashley Road,53.808859828499081,-1.516873699088394
Stanley Road,53.808435453260579,-1.516392633004442
Stanley Road,53.808191502117801,-1.516076541018103
Compton Centre,53.808489665892751,-1.509816585782125
Shaftesbury Jct E,53.801884069464371,-1.499083040145421
Shaftesbury Jct D,53.801858627139659,-1.499447743600484
Shaftesbury Med Ctr,53.798913527703881,-1.498010115599432
Pontefract Ln Pontefract Street,53.794586958546631,-1.519147767435241
Upper Accommodation Rd Dial Street,53.793028482973142,-1.522763276969810
East Park Parade East Park Road,53.792428394464082,-1.512113773307358
Ivy Street,53.796825830315747,-1.508267383868679
Ivy Street,53.797170095517899,-1.508931351441072
Tunstall Road,53.776068037309344,-1.543561908658138
Old Run Rd West Grange Drive,53.769204405831140,-1.535049229007287
Hunslet Centre,53.778874987655371,-1.527992240901717
Hunslet Health Centre,53.779585984653203,-1.525950778254945
Hunslet Centre,53.778257045319357,-1.528560638803461
Woodpecker Junction,53.798460192371302,-1.525768429276312
Pontefract Lane,53.798097334664469,-1.522660216134901
Berking Avenue,53.798070753249952,-1.518257747529373
Torre Road,53.799032148593966,-1.509304349646542
Dawlish Terrace,53.800104257776624,-1.505541710845381
Shaftesbury Jct B,53.801338991875618,-1.499848691148914
Shaftesbury Jct A,53.801085756282248,-1.499472126284565
Dawlish Terrace,53.800107858297643,-1.504235955200820
Torre Road,53.799140963246899,-1.507344555418139
Raincliffe Road,53.797529623017709,-1.513345050845180
Berking Avenue,53.797875157173415,-1.518791354330487
Pontefract Lane,53.797843807672962,-1.522192455151565
Grove Lane Junction,53.824864612962280,-1.563024186514255
Stainbeck Avenue,53.827551923735250,-1.560535036752007
Beckhill Approach,53.830966743207178,-1.555485348947697
Beckhill Approach,53.830956010654504,-1.555014453674408
Miles Hill,53.825006193768068,-1.555077466390718
Miles Hill,53.824944968553801,-1.555533864444304
Stainbeck Avenue,53.826803722942799,-1.559935169490787
Cultural A,53.796545572977948,-1.537236798741193
Cultural G,53.796393261413826,-1.535037178683119
Merrion A,53.801106117097689,-1.545233632237244
Merrion C,53.801663467508377,-1.545257971604182
Merrion B,53.802258723405622,-1.545798139443423
Merrion D,53.801412785102663,-1.543150223303638
Headrow M,53.800393903703281,-1.544664387733566
Headrow N,53.800214265555475,-1.544696698110649
Headrow L,53.800529870456387,-1.544966572397392
Headrow K,53.800314281556361,-1.544999270541194
Willow Road,53.804538040061217,-1.576764628380941
Kirkstall Road ASDA,53.807383759741775,-1.586074939640685
Woodside View,53.809223940779887,-1.590627795619648
Haddon Road,53.806955355101174,-1.584348051400911
Cardigan Fields,53.805627235014640,-1.579790597557145
ITV Yorkshire,53.802649957683393,-1.571530109350607
Washington Street,53.801154633757818,-1.568098791771423
Moor Allerton Ctr C,53.847081584761668,-1.550496451638997
King Lane P&R A,53.849218178038001,-1.552221626182198
King Lane P&R B,53.849037745624401,-1.552041146121431
Moor Allerton Ctr B,53.846070072540684,-1.549200140539176
Leafield Drive,53.844967238928611,-1.547524902253793
Moortown Corner C,53.842976314186984,-1.532256972094797
Talbot Road,53.844847614226666,-1.516824458184595
Shaftesbury Avenue,53.844066097336665,-1.508079053625670
Roundhay Park,53.837951305393766,-1.505172188747770
Roundhay Park,53.838455234970354,-1.505318216737261
Leeds City College,53.800005412110600,-1.558560714233542
Woodsley Road,53.805327694253215,-1.571335794604308
Burley Medical Ctr,53.807722432129381,-1.580073366933417
St Michael's Lane,53.810581600489016,-1.585527117118053
Eden Road,53.814853376929690,-1.594142151898611
Kirkstall Lane Headingley Station,53.817066250606928,-1.594682770464846
Langdale Avenue,53.817675617253514,-1.586246994773860
Headingley Stadium,53.818956695489668,-1.582437014765695
Kirkstall Lane Headingley Station,53.816957782630453,-1.594501551442047
Burley Hill Drive,53.813997396085917,-1.590869877829553
Talbot View,53.812314770732506,-1.587696968282023
St Michael's Lane,53.810580656255283,-1.585253770396703
Cardigan Road,53.806019950931855,-1.573910154337417
Woodsley Road,53.804745742359550,-1.569458868120000
Leeds City College,53.800138607019683,-1.558119018203407
Devonshire Avenue,53.844825431859483,-1.513556954030742
Talbot Road,53.844698675131127,-1.517783698715089
High Moor Drive,53.844456745366912,-1.522467690526129
Bentcliffe Drive,53.843714318509711,-1.527917187268230
Wellington Bridge,53.796706464021334,-1.560918098812888
Canal Street,53.795534658067673,-1.569917495687853
Armley Prison,53.797586577272540,-1.575711128467048
Albion Way,53.797087275172288,-1.571784136351684
Armley Road Bottom,53.795203570323650,-1.565336248670674
The Roundhouse,53.795022275967170,-1.564913058565458
Ledgard Way,53.798848361251551,-1.587009145976933
Branch Road,53.798555887171780,-1.585600082360100
Pickering Street,53.798919252810919,-1.581527663709785
Moorfield Road,53.800634215706637,-1.596769364170463
Armley Park Gates,53.799286991175947,-1.591741736330301
Harehills Park,53.810276335189393,-1.500623175114653
Foundry Drive,53.812451802078819,-1.507234125860605
North Farm Road,53.812027768122178,-1.498172444609215
Hetton Road,53.819306311153198,-1.502065222069284
Hetton Road,53.819143021784001,-1.501702606555460
Arlington Road,53.817998513802031,-1.505316012551738
Scott Hall Rd Street Lane,53.841875568567069,-1.540476044811209
Scott Hall Rad Carr Manor Parade,53.835100247419426,-1.543254944794837
Mexborough Street,53.815551137861554,-1.538500838888919
Buslingthorpe Lane,53.813474701357947,-1.538447698573593
Sholebroke Mount,53.819148150084679,-1.541316979781268
Scott Hall Rd Potternewton Lane,53.825613171568556,-1.546745876293524
Scott Hall Rd Wensley View,53.832075462406685,-1.544351431615927
Stainbeck Lane,53.827772381382935,-1.547299904513229
King Lane Circus,53.838984975371723,-1.543759778767841
Scott Hall Rad Carr Manor Parade,53.835254481494864,-1.543633152508418
Scott Hall Rd Street Lane,53.841635693118747,-1.541208159845517
St Urbans School,53.840266087306652,-1.559490165855049
St Urbans School,53.840453209661618,-1.559047482205352
Ridge Road,53.816013741753963,-1.546682326716267
Cardinal Heenan Sch,53.839176995272290,-1.561522764824129
Cardinal Heenan Sch,53.839258327871811,-1.561643490329470
Castle View,53.840025286807382,-1.550298436061301
Parkside Road,53.835518288094178,-1.563825086744344
West Lea Close,53.839061837543220,-1.552238742682750
Castle View,53.840454527874094,-1.549716343008430
Parklands Gardens,53.834625147246847,-1.557999420623181
West Lea Close,53.838596124085747,-1.552684409426897
Parklands Gardens,53.834849558315021,-1.557921082940839
Stainbeck Lane,53.832693911621234,-1.560769938928390
Stainbeck Lane,53.832918324606837,-1.560691619707718
Parkside Avenue,53.831191419500541,-1.562821633108550
Grove Lane Junction,53.824885626803827,-1.563859507739799
Meanwood Health Ctr,53.826953100114643,-1.566405558877334
Woodhouse Ckt Club,53.822456704492709,-1.560800994081379
Grove Lane Junction,53.824036144385566,-1.562592253523610
Sugarwell Court,53.818860013147074,-1.553091958034717
Ridge Grove,53.820374524540263,-1.556736643802374
Buslingthorpe Green,53.813613133470724,-1.544095954304542
Ridge Road,53.815371713855370,-1.545656453220828
Meanwood Rd Sackville Street,53.809721832993127,-1.539521560150243
Meanwood Rd Cambridge Road,53.811828321918625,-1.542733300948042
Meanwood Road Sheepscar Court,53.808500617727347,-1.537484863134719
Garth Road,53.839329716459616,-1.546977770141174
Garth Road,53.839974529227760,-1.546362930036632
Carr Manor Road,53.837185228037825,-1.547943059773837
Carr Manor Road,53.837472774530042,-1.547924768541202
Manor Wood School,53.834902230313716,-1.550322897311698
Manor Wood School,53.835744047515568,-1.549508519458713
Carr Manor School,53.833506012705485,-1.551902904636554
Carr Manor School,53.832995078506222,-1.552273024819184
Stonegate Crescent,53.829082346254943,-1.558756622376216
Stonegate Crescent,53.829637847939907,-1.558279793996116
Servia Gardens,53.810159798291750,-1.543586696960147
Servia Gardens,53.810352231026059,-1.544556536673188
Carlton Hill,53.808930997844676,-1.541899218858914
Stainbeck Ln Wensley Drive,53.828437992944330,-1.542689274922855
Carlton Hill,53.807965140963326,-1.540816384715656
Lovell Park Hill,53.804417895097785,-1.539260776143193
Stainbeck Ln Harrogate Road,53.828864440478576,-1.539038292335728
Merrion E,53.802402130626462,-1.540968232380739
Stainbeck Ln Wensley Drive,53.828615602639999,-1.542125200796351
Kepstorn Road,53.833003878912336,-1.592599304617699
Kepstorn Road,53.833020667887702,-1.592249666949223
Ancaster Road,53.832040939168152,-1.589600190485710
Ancaster Road,53.832078602786254,-1.590101231772226
Glen Road,53.829933138069016,-1.585640098369747
Glen Road,53.830503184340017,-1.586743612572575
Weetwood Lane,53.827928880103784,-1.583061909457441
Weetwood Lane,53.828065329941524,-1.583531531288505
St Chads Drive,53.825243572363206,-1.581083243714029
Grafton Street,53.803719013451619,-1.539830241533825
Lovell Park Hill,53.805290338672101,-1.539418246571566
Craven Road,53.812217348803287,-1.548150850382846
Melville Road,53.814070987365454,-1.551107720047077
Melville Place,53.814626725613536,-1.548307206023861
Melville Road,53.813951988065952,-1.550531858785233
Lawnswood School,53.836916400987555,-1.593412330353973
Melville Place,53.814290291585060,-1.547278050209028
Lawnswood School,53.836064115123882,-1.593876450154337
St Chads Drive,53.825749001071422,-1.581685882072694
St Anne's Road,53.824370442075107,-1.580712162340911
Miles Hill Road,53.824893931363917,-1.551478236130796
Stainbeck Avenue,53.826718073458537,-1.561090681115625
Potternewton View,53.824871151253923,-1.547802103552945
Miles Hill Road,53.825003603491112,-1.549562913420462
Stainbeck Lane Scott Hall Rd,53.828406258068050,-1.546168798499723
Stainbeck Lane Scott Hall Rd,53.828494985235302,-1.545863981065768
Stainbeck Lane Stainbeck Rd,53.831641603222188,-1.555690924981561
Stainbeck Lane Stainbeck Rd,53.831631603095090,-1.555417537349759
Stainbeck Lane Miles Hill Crescent,53.828866631806818,-1.549080897118773
Grove Lane Bridgewater Court,53.823886110250314,-1.568320923769532
Grove Lane Bridgewater Court,53.823788665641672,-1.568716896847451
Grove Ln Grove Road,53.824115411006517,-1.572116405461291
Grove Ln Grove Road,53.824261756450781,-1.572828911103729
Moor Road,53.825897202478252,-1.575258195341870
Shaw Ln Otley Road,53.824023648235894,-1.579211682928772
Moor Road,53.826162957389073,-1.574161678641353
Monk Bridge Rd Highbury Lane,53.827063554036648,-1.569625211453480
King Lane Bracken Hill,53.839034622351747,-1.542634678761293
Monk Bridge Road Monk Bridge Terrace,53.827061810183757,-1.569139072013461
King Lane Southlands Ave,53.836941664971818,-1.540606009949117
Stonegate Rd Queenshill Way,53.843711993304297,-1.543586829930183
King Lane Bracken Hill,53.839098288021880,-1.542831543649954
Stonegate Rd Harrogate Road,53.846593551858796,-1.535621363134036
Stonegate Rd Highwood Avenue,53.845477441225874,-1.539874257431188
Oatland Rd Oatland Place,53.810296366972338,-1.541686918124078
Eden Drive,53.817055611084747,-1.588911135412662
Headingley Stadium,53.818545268360026,-1.583018296692107
North Lane Library,53.821118764324062,-1.578709109885054
North Lane Library,53.821037075358973,-1.578482075319875
Eden Drive,53.817472681499453,-1.589970281803694
Eden Drive,53.816780992020988,-1.590083349991429
Langdale Avenue,53.817417328153582,-1.586933038584680
Millshaw Road,53.755406425200512,-1.570888443701608
Cotton Mill Beck,53.753004464953719,-1.570291115873341
Cotton Mill Beck,53.751661697290885,-1.569303907864207
Millshaw Road,53.755412860834497,-1.570175550414687
Ring Road Millshaw,53.766389458999100,-1.575828308258421
Ring Road Millshaw,53.765065037065689,-1.574931447142727
Cottingley Drive Cottingley Fold,53.771850534881004,-1.585058839589526
Cottingley Drive Cottingley Fold,53.771669624821762,-1.584726829781518
Cottingley Dr Dulverton Gardens,53.770907611057083,-1.587905319309637
Cottingley Drive Dulverton Gardens,53.771132148790919,-1.587857605010694
Cottingley Drive Dulverton Place,53.769289604955162,-1.587860468703006
Cottingley Drive Dulverton Place,53.769479129588291,-1.588086187720472
Cottingley Drive Cottingley Station,53.767821468594754,-1.586964577670074
Cottingley Crescent,53.769235334130514,-1.579986980371365
Cottingley Drive Dulverton Square,53.765884864155190,-1.583160653521716
Cottingley Drive Dulverton Square,53.765768075909101,-1.583176979817027
Millshaw,53.767133465291209,-1.577808184336409
Old Road,53.765096748459676,-1.581393560956784
Victoria Street,53.761446090893230,-1.588756333505370
Clarkson Terrace,53.762256941129593,-1.586700600742496
Victoria Street,53.760883392233431,-1.589793286086295
Daffil Road,53.759042706778885,-1.592981290927638
Lane Side,53.757036013186941,-1.594942071031210
Lane Side,53.757386076069977,-1.594802199796942
Headingley Arndale,53.822169522562916,-1.578470716521919
St Michaels Church,53.819300466877621,-1.575385623774697
Headingley Arndale,53.822215793872175,-1.578850018816640
Richmond Avenue,53.817536328267870,-1.572153006937177
St Michaels Church,53.819247346551954,-1.575614004231130
North Grange Road,53.816732200876501,-1.568470343263279
Richmond Avenue,53.817548614786595,-1.573079409205520
North Hill Road,53.816486637056691,-1.567667869034045
North Grange Road,53.816734492538096,-1.569108244322777
Cumberland Road,53.815946651674487,-1.564985076775820
North Hill Road,53.816256465181695,-1.566151385611802
Hyde Prk Corner,53.814034154979204,-1.560585245814500
Cumberland Road,53.815875300669795,-1.565137698936937
Hyde Park Corner,53.813990550495028,-1.560950206271831
Clarendon Road,53.811398150440638,-1.557453953330263
Hyde Prk Corner,53.814153161597709,-1.561176324118635
Leeds University,53.809880026958318,-1.555252747080543
Clarendon Road,53.810647183040565,-1.556110261165116
Leeds University,53.808359769350936,-1.552489852535029
Leeds University,53.809342592663043,-1.553329808167335
Leeds University,53.808287471634792,-1.552384322603259
Leeds University,53.808116422798342,-1.552310215768588
Leeds University,53.807007764918154,-1.551471650652065
Leeds University,53.807160441736819,-1.551439651488006
Blackman Lane,53.806307808109217,-1.549368413065231
Fenton Street,53.805561432766460,-1.549270119496089
Woodhouse Ln Car Pk,53.805050006459069,-1.547119406890052
Lodge Street,53.806013266435599,-1.549918223164607
Leeds University,53.808445791313531,-1.551456309689600
Carlton Hill Carlton Grove,53.808187629023962,-1.542590670894541
Hyde Park Road,53.809810050519467,-1.565595277599112
Moorland Road,53.808065006709803,-1.560283179264458
Moorland Road,53.808294898654395,-1.559248151769517
Woodhouse Lane,53.810345361035218,-1.557130935305828
Spring Road,53.816554957663414,-1.576749957290057
Spring Road,53.817422480630135,-1.578077846830537
Victoria Road Jct,53.814179153666814,-1.575908176972870
Victoria Road Jct,53.814329850073996,-1.575314332154632
Buckingham Road,53.814423828671330,-1.571410107182323
Buckingham Road,53.814695707341294,-1.569524030249419
Hyde Park Picture House,53.812447752692627,-1.569258494232054
Royal Park Road,53.810478632930661,-1.569050873041663
Royal Park Road,53.810777460401603,-1.569670457462055
Victoria Road,53.813992182021913,-1.576411256861666
Burley Medical Centre,53.807875860419458,-1.580254060267645
Victoria Road,53.813785304459159,-1.576367778655255
Cardigan Road,53.806295016689397,-1.575441042265134
Headingley Stadium,53.818526805284428,-1.580299591382621
Rosebank School,53.803515771891995,-1.567345714503838
Rosebank School,53.803164102065942,-1.567030473310891
Talbot View,53.811656632631113,-1.587111136263870
Harold Grove,53.809042993049125,-1.574775486251576
Burley Hill Drive,53.814107679392393,-1.591582627228947
Mayville Avenue,53.811004674854324,-1.575423855722049
Carberry Road,53.807147181615264,-1.574961696268167
Harold Grove,53.809457018510337,-1.574938345350458
Eden Road,53.815070262427227,-1.594489383349399
St Andrews Street,53.800632579164585,-1.562926796678744
Dewsbury Road,53.759632591538740,-1.568873540793467
Burton Road,53.777115280588717,-1.544779677860402
Hunslet Fire Stn,53.772318103327443,-1.547805392197947
Barkly Road,53.766428596537203,-1.556819252755967
Tommy Wass Junction,53.764388516486939,-1.561770903840774
Parkwood Road,53.761620346438669,-1.561814876332907
Benson Street,53.804924721794727,-1.535504668102722
Southbank B,53.791983214948793,-1.542857957747377
Cardigan Fields,53.805903390642818,-1.581655563159194
Burley Wood Mount,53.810558535788999,-1.594563273588513
Burley Wood Mount,53.810632846278338,-1.595276320582456
Woodside View,53.809452512630458,-1.591764522730921
Weetwood Police Stn,53.840319388834139,-1.595051077622754
Spennithorne Drive,53.842986588959789,-1.597061911723392
Jaw Bones,53.757969691906858,-1.503746190886898
Low Shops Lane,53.756945408341494,-1.497357723747183
St George's Park,53.757607909255071,-1.501035492030821
Haigh Beck,53.754796318501349,-1.505785537012259
Glebe Farm,53.752758486566179,-1.506385738131701
Glebe Farm,53.752416579832314,-1.506298751230118
Middleton Lane,53.749724263020383,-1.507300830796053
Wood Lane End,53.758586368861486,-1.505073685488242
Leeds Valley Park,53.762330724459602,-1.508548907761646
Southbank C,53.792297552340230,-1.542793822468810
Southbank A,53.792162274422417,-1.542673854150039
Weetwood Police Stn,53.840920639579238,-1.594771726579019
Lawnswood Cemetery,53.846002001564884,-1.593050769813502
Lawnswood YMCA,53.844017993704327,-1.593738733346182
Lawns Hall Close,53.848176292512690,-1.592816894620896
Lawnswood YMCA,53.842921499117423,-1.593749341431786
Weetwood Lane Otley Rd,53.827998088018511,-1.582286392599846
Weetwood Lane Otley Rd,53.827711380907658,-1.582547517927329
Weetwood Avenue,53.831567090804022,-1.582509204649637
Weetwood Avenue,53.830901105024402,-1.582257528478692
Weetwood Lane Weetwood Ct,53.832988462205300,-1.582874942374394
Weetwood Lane Weetwood Ct,53.833151242840614,-1.583162023612657
West Street,53.798733506675816,-1.557313942792794
Washington Street,53.801075601148682,-1.568615826141784
Kirkstall Fire Stn,53.799444993398119,-1.565079861636746
Wellington H,53.796635545444872,-1.553874658172385
Wellington I,53.796438940755301,-1.551766534899293
Kirkstall Fire Stn,53.799404138146088,-1.563729048724189
Wellington G,53.797062412788385,-1.557498528141973
Willow Road,53.804071075623888,-1.574339872290723
ITV Yorkshire,53.803150502160065,-1.573271142819425
Throstle Road North,53.750598743266117,-1.525791718268430
Throstle Road North,53.750671124613319,-1.525912222525054
Windmill Road,53.763297707839215,-1.527757280220205
Windmill Road,53.762692962167783,-1.527111786185326
Petersfield Avenue,53.760696555490156,-1.526846001471532
Town Street,53.756074718563653,-1.526351913106025
Ring Rd Middleton,53.752558605202445,-1.525906147846455
Lanshaw Crescent,53.750781046009152,-1.528716493252138
Lanshaw Crescent,53.750711466673124,-1.529308701883811
Dunlin Drive,53.750350868090514,-1.531329642066304
Newhall Bank,53.751316225065594,-1.532259139280763
Newhall Bank,53.751101761136674,-1.532579985649541
Newhall Gardens,53.750959380110565,-1.537586003820531
Newhall Gardens,53.751095248181791,-1.537857482827583
North Lingwell Road,53.751287099394183,-1.543360302353413
Middleton Park,53.750832621236825,-1.546762168694667
Middleton Park,53.750878419315669,-1.546989149952420
Lanshaw Walk,53.754859502781557,-1.528170375576522
Lanshaw Walk,53.755110741139653,-1.528061396262293
Winrose Drive Winrose Ave,53.763659955596772,-1.530741618314842
Winrose Drive The Clearings,53.762665220806994,-1.533801708590180
Winrose Drive Elmton Close,53.759170723164495,-1.531974734110930
Winrose Drive Newhall Gate,53.757121109779945,-1.531891337817114
Newhall Rd Newhall Chase,53.753967958477837,-1.532320693413671
Newhall Rd Newhall Chase,53.753735282688069,-1.532581097933004
Manor Farm Drive,53.753291207737746,-1.533950947644445
Manor Farm Drive,53.753176369711760,-1.534467854049788
Cranmore Road,53.750540975769845,-1.524821819922376
Cranmore Rise,53.752300588850503,-1.522041860234306
Cranmore Rise,53.752353547944168,-1.521798611786983
Raylands Way,53.753944997519270,-1.519687631512551
Raylands Way,53.754097545569778,-1.519625227763136
Broom Place,53.755379565237035,-1.518806779818614
Hopes Farm Road,53.757019806527090,-1.517665672124523
Hopes Farm Road,53.757630420985763,-1.517522173373208
Lea Park Drive,53.759658075110600,-1.518848907457195
Belle Isle Centre,53.766346679229464,-1.523718069879191
Belle Isle Centre,53.766347341660172,-1.523884938076533
Hunslet Cemetery,53.767957342291325,-1.524170154498634
Woodhouse Hill Road,53.770525050829392,-1.523443221186809
Leasowe Road,53.771670283983227,-1.522125427721193
Pepper Road,53.773350859421733,-1.522076004019769
Pepper Road,53.773666092980342,-1.522239329827680
Midland Close,53.776247609880066,-1.522725947917377
Midland Close,53.776114544495570,-1.523167503882037
Midland Road,53.776880558587465,-1.530518368129767
Midland Road,53.776645096549508,-1.530065767640267
Playfair Road,53.773832307033025,-1.530188207833923
Moor Rd Carr Moor Street,53.773068635975704,-1.537206626232904
Tunstall Road,53.776222097811292,-1.543894067528255
Beza Street Tulip St,53.775889367523313,-1.536811439436996
Church St Balm Road,53.777801454368365,-1.531570321270828
West Grange Drive,53.769212632893918,-1.530239758546051
East Grange Road,53.766736376582180,-1.529084074049051
East Grange Road,53.767449201669479,-1.529789134564524
East Grange Drive East Grange View,53.768602240733941,-1.528152925723123
East Grange Drive East Grange View,53.768615615678733,-1.526984583226207
Middleton Road Low Grange View,53.765049618531720,-1.523019748267153
Middleton Rd Windmill Road,53.763218660341558,-1.523677601207193
Middleton Rd Windmill Close,53.760389882560446,-1.524301160791569
Windmill Road Urn Farm,53.762492420046407,-1.526401089152618
Thwaite Gate,53.776791427723452,-1.517120469965709
Whitehouse Street,53.784796179010066,-1.532084368043303
LCC Printworks,53.788740115158078,-1.536244975560126
LCC Printworks,53.788648418938521,-1.535775451109217
Thwaite Gate,53.777777790239817,-1.518778364462446
Crown Point E,53.791641113711535,-1.538019372694374
Leeds Dock B,53.791191636510433,-1.535671490474640
Raincliffe Road,53.797747602897893,-1.513904257211078
Woodpecker Junction,53.798231426761106,-1.527015934455535
Upper Accommodation Rd Hampton Street,53.795097995535812,-1.523331851649397
Upper Accommodation Rd Hampton Street,53.794802849817259,-1.523699535131323
Upper Accommodation Rd Dial Street,53.792642858994846,-1.522980171887013
Dial Street Easy Rd,53.791234862449343,-1.521508546739480
Easy Rd Cross Green Lane,53.790268428223421,-1.522582079091076
Pontefract Lane Cross Green Approach,53.788951064536093,-1.510165692262612
Pontefract Ln Newmarket Lane,53.786938854360535,-1.503875088983559
Knowsthorpe Gate,53.784968853709607,-1.501318184921767
Cross Green Way,53.783860685154828,-1.502849002914887
Knowsthorpe Gate Cross Green Way,53.783662754623521,-1.504976090041556
Cross Green Way,53.783688144016196,-1.508967285322612
Cross Green Way,53.785338501167161,-1.512529886872005
Cross Green Ln Pontefract Lane,53.790332555934462,-1.513929222326448
Cross Green Ln Glencoe View,53.789109286867912,-1.515931769631808
Cross Green Crescent,53.788226256034378,-1.519857960079959
Cross Green Lane Cavalier Approach,53.788809768951722,-1.521930772110222
Lupton Ave Torre Lane,53.800476422295667,-1.508619452443972
East End Park Parade,53.794334162705454,-1.509981562176239
East End Park Parade,53.793804326286747,-1.510093997480838
East Park Parade East Park Road,53.792652653308181,-1.512004912214977
East Park Road Garton Rd,53.792351944580751,-1.513207613249171
East Park Rd Glensdale Grove,53.793497522021411,-1.516442944380845
East Park Rd Glensdale Grove,53.793605129012953,-1.516380985951257
Pontefract Ln Pontefract Street,53.794558900338807,-1.518874835600907
Lavender Walk Hall Place,53.795350176105423,-1.521203656246056
Shaftesbury Med Ctr,53.798320790016810,-1.498123465111227
Rookwood Street,53.796571694985687,-1.498979315876709
Rookwood Street,53.796139275115628,-1.498741566377499
Neville Hill,53.794231299190962,-1.498141899448067
Neville Hill,53.794023504421709,-1.497886309824783
Rookwood Avenue,53.800754271600276,-1.497578202896529
Rookwood Avenue,53.800934595728819,-1.497712695620784
Top Moor Side,53.783721154455733,-1.559126148551910
Beeston Pk Ring Rd,53.753760279426096,-1.560592361386672
Beeston Pk Ring Rd,53.753644216184334,-1.560805894764734
Heath Mount,53.776561429962975,-1.572584762361779
Cemetery Road Fairfax Rd,53.778789462672471,-1.557432684615861
Cemetery Rd Beeston Road,53.778282003269432,-1.556315085180566
Cemetery Rd Tempest Rd,53.777590229695228,-1.556398249911125
Beeston Co-Op,53.772744911081517,-1.566023344011032
Old Lane Moorhouse Ave,53.769476314209015,-1.564388156291959
Ring Road Beeston,53.762617972421637,-1.566749638697207
Thirlmere Gardens,53.761896620359615,-1.571110529148753
Elland Rd Fairway Court,53.779987820139240,-1.563141214475139
Fairway Court,53.779936929810148,-1.563976389311040
Helston Road,53.751580636617078,-1.561813142480958
Park Wood Rd Park Wood Avenue,53.762415473708373,-1.562959453304045
Elland Road Ind Est,53.773402514365202,-1.579050198384401
Elland Road Ind Est,53.773141709908252,-1.579007287330604
Cemetery Road Fairfax Rd,53.779186488713705,-1.557853413427738
Cross Flatts Drive,53.774568056165535,-1.563151939747886
Beeston Terminus,53.772052723617989,-1.570991901762266
Old Lane Grovehall Rd,53.767236051748967,-1.563774158225785
Thirlmere Gardens,53.762143171242173,-1.569682134987962
Gelderd Rd Cemetery,53.769396876374898,-1.595612093568159
Gelderd Rd Cemetery,53.769512028874161,-1.595110324377328
Hill Top,53.772598500475958,-1.590862624036658
Hill Top,53.772365025543152,-1.590925583483360
City Park Ind Est,53.774754841577732,-1.588004221534115
City Park Ind Est,53.774977867226177,-1.587516483983398
Wheatsheaf Junction,53.778529845696944,-1.582807816264010
Gelderd Business Pk,53.781321568228535,-1.579213811500204
Lowfields Road,53.782681464057717,-1.577424578959248
Bracken Court,53.786028157116157,-1.573232313429539
Bracken Court,53.785973420859534,-1.573005205075654
Domestic Rd Copley Hill,53.789266629805780,-1.568979771879545
Stainbeck Lane Miles Hill Crescent,53.828813846986108,-1.549385324904913
Ring Rd Tongue Lane,53.843164638708906,-1.555812178105811
Ring Rd Weetwood Lane,53.842953236199641,-1.582046453278779
Valley Farm,53.842302786363888,-1.575973756383793
Long Causeway Oaklea Hall Close,53.844256709534527,-1.582109472315997
Long Causeway Oaklea Hall Close,53.844266173160058,-1.582246165858359
Burley Place Viaduct Rd,53.803764294437606,-1.576544655941783
Wellington Bridge,53.796934651952363,-1.561872153170253
Green View,53.829692518775893,-1.568367617705367
Ring Rd Scotland Mill Lane,53.842574297420427,-1.563949372513065
Long Causeway St Helens Lane,53.848852339037890,-1.580330895876441
Long Causeway St Helens Lane,53.848618129136987,-1.580181234922176
Weetwood Lane Quarry Dene Pk,53.837164322740968,-1.584444254701161
Weetwood Lane Quarry Dene Pk,53.837037601119263,-1.584187176168466
Weetwood Lane Foxhill Ave,53.838848062295810,-1.585309002161944
Weetwood Lane Foxhill Ave,53.839064343323550,-1.585474030871601
Viaduct Road Burley Place,53.803717533353030,-1.576028871788910
Armley Park Gates,53.799151968701644,-1.591682317667033
Armley Prison,53.797473778636125,-1.574315548369414
Branch Road,53.798266612732782,-1.587728411818723
Pickering Street,53.799017005523645,-1.581207863455675
Headrow A,53.799445525750869,-1.545813339024765
Headrow J,53.799580857869685,-1.545948519990785
Headrow I,53.799448988420757,-1.544355786592610
Civic M,53.799652994970437,-1.548392127019716
Civic L,53.799642463991262,-1.547982312162816
Wellington J,53.797071898019247,-1.550378265371301
Canal Rd Forge Lane,53.801176227058569,-1.581808867722356
Canal Rd Forge Lane,53.801463198799368,-1.581623816351717
Lingfield Centre,53.849553129653479,-1.545681807676728
Cranmer Road,53.848664400689358,-1.553154747912433
Cranmer Road,53.848870380086567,-1.552954951308085
Moor Haven Court,53.847499684425962,-1.554155133119574
Cranmer Bank,53.847503234636257,-1.557544656302840
Ring Rd Tongue Lane,53.842867428759824,-1.555648142467898
Ring Rd King Lane,53.844786099876146,-1.549548300675183
Ring Rd King Lane,53.844904819369461,-1.550048590293092
Valley Farm,53.842029526877035,-1.577496298550685
Ring Road Birchwood Hill,53.849563167270013,-1.513821267271583
Ring Rd Harrogate Road,53.848238191309811,-1.533262354948812
Ring Rd Lingfield Road,53.847639226878599,-1.543452936921218
Ring Road Moortown Hodgson Crescent,53.849567287521531,-1.508212197517501
Ring Rd Roundhay Park Ln,53.848451079049141,-1.501263581579540
Shadwell Ln Sand Hill Lane,53.846528872443074,-1.530545450163369
Saxon Road,53.843287706883658,-1.557497887226831
Corn Exchange I,53.795896918214815,-1.541525024859797
Trinity Q,53.795880652322381,-1.544333716920731
Scotland Wood Road,53.846519606624177,-1.561370088173973
Tynwald Hill,53.844883660408250,-1.558879364322413
Tynwald Hill,53.844810754073407,-1.558606551014267
Ring Rd Scotland Mill Lane,53.842350489580070,-1.564194863816746
Ring Rd Shadwell Lane,53.849036577157101,-1.528267748504709
Shadwell Ln Ring Road,53.848541603594050,-1.528106108116609
Wortley Ringways,53.781464525840562,-1.594631127506336
Royds Lane,53.781839983659197,-1.591379833912686
Dixon Lane,53.782271112751786,-1.586048794717151
Dragon Bridge,53.784470306390730,-1.580047417684121
Dragon Bridge,53.784594221223685,-1.579499806798629
Copleyhill Trading Estate,53.786888454779238,-1.575044935563095
Copleyhill Trading Estate,53.787226705872484,-1.574115660446842
Fawcett Avenue,53.783727254246394,-1.596627839364456
Western Grove,53.785468492055074,-1.593241772839313
Green Top,53.786631899490253,-1.591758281250611
Green Top,53.787241205885856,-1.591205961455741
Five Lane Ends,53.787839708559780,-1.590122492678974
Roseneath Place,53.788911263921222,-1.582871853551044
Roseneath Place,53.789026943186919,-1.582536776167101
Tavistock Park,53.789438660647775,-1.579466571193085
Tavistock Park,53.789322086150968,-1.579543630193824
Clyde Gardens,53.791129776850411,-1.572224261342111
Copley Hill,53.790816949027096,-1.575248125477680
Third Avenue,53.791625107538060,-1.577577625285149
Third Avenue,53.791835507487726,-1.578622910551282
Fearnley Place,53.792419119471354,-1.581015487441045
Fearnley Place,53.792521266692638,-1.581955625444799
Amberley Road,53.792980613093299,-1.584820097763112
Amberley Road,53.793056657842023,-1.586018576398267
Thornhill Road,53.793457095506696,-1.590082945144396
Thornhill Road,53.793497033359891,-1.591251436889212
Carr Crofts,53.793594644743912,-1.593527534329109
Carr Crofts,53.793212996674704,-1.594958157438911
Whingate Junction,53.793350627767765,-1.595791744216901
Whingate Junction,53.792965228283876,-1.596114228709377
Upper Wortley Rd Thornhill Road,53.791272926439966,-1.592699915002155
Upper Wortley Rd Thornhill Road,53.791136202839375,-1.592139600131100
Five Lane Ends,53.788645854658832,-1.589310178300124
Five Lane Ends,53.788601279547279,-1.589416862908166
Dixon Lane,53.785256437160427,-1.589039711444162
Dixon Lane,53.785337690653570,-1.589145159229537
Dixon Lane Kellett Crescent,53.783234161944300,-1.586433912902103
Eighth Avenue,53.792218549358331,-1.575097356296147
Holdforth Close,53.793456971679071,-1.574553538621601
Holdforth Close,53.793312845311689,-1.574463914916565
Eighth Avenue,53.791939930136046,-1.575100170287651
Holy Family School,53.795948003559339,-1.580039106874704
Holy Family School,53.795619648867927,-1.581241687478462
Brooklyn Street,53.795200003303606,-1.584631203614864
Brooklyn Street,53.795112173794863,-1.585224124313516
Carr Crofts Drive,53.793767312814843,-1.594087539589979
Carr Crofts Leisure Centre,53.795165594428944,-1.592950662842842
Carr Crofts Leisure Centre,53.795487297873663,-1.592401034325716
Ring Rd Royds Lane,53.779976673798082,-1.590563277014396
Ringways Ring Road,53.780791007997657,-1.594804546831746
Victoria M,53.800014467092986,-1.539445662689039
Victoria O,53.799394726214587,-1.539558726363628
Victoria I,53.798659018859190,-1.539900788405922
Corn Exchange C,53.797276779968207,-1.540401722276611
Corn Exchange E,53.796414312689009,-1.540502234465739
Corn Exchange F,53.796252883398196,-1.540595085757328
St Johns Church,53.849015136663034,-1.534287343107452
Ring Rd Shadwell Lane,53.848820935107426,-1.528285372013689
Ring Road Moortown,53.849547986383946,-1.516739956720425
Lawnswood School,53.837461156363652,-1.595033046624017
Ring Rd Weetwood Lane,53.842637752294131,-1.584374894296045
Ring Rd Lingfield Road,53.847111038044439,-1.544005869550036
Wellington A,53.796098097319124,-1.549553706799208
Ring Rd Harrogate Road,53.848139240168784,-1.535558665433965
Park Wood Rd Park Wood Avenue,53.762383606966083,-1.564082294685949
Parkwood Road,53.760891940369575,-1.566661214181892
Parkwood Rd Parkwood Crescent,53.759507332891019,-1.566538947133775
Parkwood Estate,53.757717946894559,-1.566329850100666
Lady Pit Lane,53.780474356652036,-1.551284027931265
Northcote Crescent,53.781313802711686,-1.545068134990255
Sweet Street,53.788804803425720,-1.546110357224017
Southbank G,53.790994028122299,-1.547468063205654
Southbank E,53.791434688905333,-1.545156031038845
Wellington M,53.795658825833236,-1.552260642357990
Globe Road,53.793249625366670,-1.559436160424166
Springwell Street,53.791859813564315,-1.562805428167215
Springwell Street,53.791662968708323,-1.563050347792745
Spence Lane,53.791024452969786,-1.565424964901383
Spence Lane,53.790421561790204,-1.565233863047604
Holbeck Lane,53.789383679996192,-1.564060641435245
Holbeck Lane,53.789348776534233,-1.564349400075733
Parkwood Crescent,53.758057396603498,-1.565749990200464
Parkwood Road,53.760740189287141,-1.566950976406806
Parkwood Rd Parkwood Crescent,53.759688129032988,-1.566825280253650
Parkwood Crescent,53.759059369431185,-1.566937921540384
Malvern Road,53.779452706582873,-1.552084031824506
Parkfield Street,53.784048881137693,-1.543414639827335
Sweet Street,53.789128647197394,-1.546182757175343
Sweet Street,53.788155046894843,-1.545419161636034
Southbank F,53.791609879554187,-1.546322967424703
Station E,53.793884910402809,-1.546602040489486
Station F,53.793705328861208,-1.546649517180843
Wellington O,53.795687034524121,-1.552594325963205
Globe Road,53.793141828737340,-1.559452469510872
Lawnswood School,53.838726909162055,-1.591920730919626
Scott Hall Rd Rdbt,53.846219703478347,-1.534242355244709
Scott Hall Rd Rdbt,53.845824662371264,-1.534353132235648
Kingsway Court,53.838689634530013,-1.537046071360897
Moortown Corner D,53.842226500466836,-1.533587544261412
King Lane,53.837190582940110,-1.539889070523200
Nunroyd Avenue,53.840359971753173,-1.534352941030267
Gledhow Valley Road,53.835380576353003,-1.538997172073859
Valley Gardens,53.833987263590615,-1.538951684546088
Valley Gardens,53.833815740245321,-1.538756033825215
Wood Lane,53.831847161478720,-1.538701678721341
Wood Lane,53.831288936682135,-1.538449511381246
Regent Street,53.829634748263317,-1.538346138621854
Harrogate Rd Ingle Row,53.828418086703898,-1.537493511362056
Stainbeck Lane,53.828138709489842,-1.537299080247880
Stainbeck Lane,53.828509016176426,-1.537765983589289
Chapel Allerton Sch,53.826804144993268,-1.536174352080145
Montreal Parade,53.826142640480335,-1.534783981133096
Potternewton Lane,53.825365756544407,-1.533774730786361
Potternewton Lane,53.825836708232330,-1.534696216579871
Chpl Allerton Hosp,53.822646829050754,-1.532604821735891
Newton Parade,53.821379101430168,-1.532497399058683
Sikh Temple,53.820315779487366,-1.531795298230360
Sikh Temple,53.819928778440321,-1.531662901149879
Sikh Temple,53.820163523091225,-1.531933704054337
Bentcliffe Grove,53.841208697864637,-1.530726510423807
Bentcliffe Grove,53.841110487681348,-1.530894780730236
Allerton Grange Ave,53.839979984524064,-1.526819384975889
Gledhow Lidgett Ln,53.838630383872783,-1.524190377831917
Gledhow Lidgett Ln,53.838589548873323,-1.522959914502118
Larkhill Close,53.837507352135852,-1.522045237324588
North Park Avenue,53.836453504658834,-1.521479788307536
North Park Avenue,53.836146230162832,-1.521057808709339
Chandos Gardens,53.834795302000060,-1.520374232249732
Gledhow School,53.833518457707299,-1.520236864558211
Gledhow School,53.833536979313173,-1.520373406115244
Lidgett Hill,53.829583774795438,-1.520752795557579
Lidgett Hill,53.829297687572733,-1.521135890637586
Thorn Lane,53.828603574880077,-1.516145303630452
Thorn Lane,53.828645141829803,-1.515309208622772
Oakwell Mount,53.828187374913554,-1.511030103736912
Oakwell Mount,53.827989771867493,-1.511062789224637
Oakwood Clock,53.827440166866396,-1.506344289532071
Oakwood Clock,53.827440916463040,-1.506526591846661
Gledhow Lane,53.828899062686034,-1.515868424268866
Spire Hospital,53.831041169626481,-1.516603431134785
Spire Hospital,53.831203435554258,-1.516723115423100
Jackson Avenue,53.833412667549247,-1.516272244026965
Gledhow Avenue,53.833256299024605,-1.519859991708128
Brackenwood Drive,53.831651191632282,-1.523053907041655
Gledhow Towers,53.831920985200235,-1.525360362547588
Lincombe Mount,53.833967825808465,-1.527023871731701
Lincombe Mount,53.834625834891341,-1.527502707775531
Larkhill View,53.836130599965763,-1.526178946911702
Larkhill View,53.835996085950342,-1.526256442821023
Larkhill Road,53.837839657108397,-1.524244925599814
Brackenwood Drive,53.831953749080924,-1.522290760937163
Lidgett Park Road Lidgett Park Mews,53.837578386536436,-1.508474171696558
Lidgett Park Rd The Avenue,53.838063270292942,-1.512769087735667
Princes Ave Soldiers Field,53.831935177908981,-1.504407380842735
Princes Ave Soldiers Field,53.832438920722055,-1.504507798182979
Park Lane,53.842733499381133,-1.505313408372352
Roman Avenue,53.844377829668986,-1.509580074870579
Park Lane,53.841775489220375,-1.504032883288385
Roman Avenue,53.844769564599815,-1.510867402579864
High Moor Drive,53.844590531037184,-1.522207789459179
Bentcliffe Drive,53.844051299318210,-1.526758305413684
Street Ln Allerton Ave,53.842824235550935,-1.532441043919652
Street Ln Moorland Rise,53.842648391698404,-1.542792892874164
Harehills Ln Newton Road,53.822671485451323,-1.527424466879368
North Lane,53.829218991254102,-1.499638361214079
North Lane,53.828870881263590,-1.500219845856330
Oakwood Ln Back Wetherby Terrace,53.826797748197386,-1.503131057308559
Oakwood Lane Springwood Rd,53.826181808503499,-1.501983738978274
Oakwood Lane Springwood Rd,53.825964025756761,-1.501484982430708
Oakwood Lane Montagu Cresc,53.823516245013231,-1.498597318175599
Oakwood Lane Montagu Cresc,53.823553083495924,-1.498809555268121
Easterly Grove,53.817175534006587,-1.510656996082354
Fforde Grene Jct,53.818040779139338,-1.513456921568830
Easterly Grove,53.817451981014123,-1.510122163086696
Arlington Road,53.818241992377118,-1.505510607061737
Lupton Ave Harehills Lane,53.806093133951066,-1.506230526465614
Torre Rd Lupton Avenue,53.799582131169998,-1.509723043059537
Torre Road,53.799548288524463,-1.510239642843909
Torre Road,53.800246441496931,-1.516167970310205
Torre Road,53.800211959528923,-1.516532752847044
Torre Rd Nippet Lane,53.801199554386571,-1.520742300116050
Nippet Lane,53.800955815165736,-1.524996319839865
Torre Road,53.801062833282096,-1.522520274694094
Co-Op Academy,53.801822185686987,-1.521357720344734
Shakespeare Gardens,53.804145905148694,-1.518066674907275
Shakespeare Street,53.805145433010409,-1.516293813736265
Shakespeare Street,53.805503591056393,-1.515955631039175
Compton Place,53.807472259748366,-1.511589950827497
Compton Place,53.807669678240387,-1.511511730214317
Harehills Park,53.810399822211295,-1.500059810092718
Foundry Place,53.809853058949351,-1.504758859334912
Foundry Place,53.810119614072235,-1.504011588932958
Compton Centre,53.808408157071057,-1.509665679051089
Oakwood Academy,53.812784185600378,-1.498512721959566
Thorn Crescent,53.812829659017908,-1.502962062168554
Foundry Ave Thorn Crescent,53.812550854892187,-1.502919797254084
Foundry Drive,53.812520332985450,-1.506413213849318
Strathmore Drive,53.811026898869521,-1.510455213279371
Strathmore Drive,53.811135121790535,-1.510545073132552
Burmantofts Street,53.799571364001153,-1.527198237481319
Nippet Lane,53.800833410516496,-1.525863131200139
Lincoln Green Road,53.803368013113101,-1.523587338814522
Bexley Wing,53.805452765369438,-1.521210099741903
Nippet Lane,53.800294751664680,-1.526021031867633
Foundry Avenue,53.814567961819634,-1.501665719366278
Harehills Nice View,53.815620592043715,-1.517312392635201
Harehills Place,53.813787363706588,-1.517394195179991
Conway View,53.812241555237549,-1.517427129573163
Grant Avenue,53.808495671487123,-1.526991581397144
Harehills Lane Buller Grove,53.803846765425661,-1.502035735920582
Harehills Lane Nowell Place,53.804290557649935,-1.502850428325115
Harehills Ln Lupton Avenue,53.806811830222664,-1.506146160324764
Harehills Lane Luxor St,53.815265824905296,-1.514035819149084
Harehills Lane Dorset Ave,53.814959508238779,-1.513857103871074
Harehills Ln Berkeley Road,53.811797894825659,-1.512177544808786
Jackson Avenue,53.833469346236889,-1.516955355858859
Harehills Ln Newton Road,53.822554706296621,-1.527440971027019
Harehills Ln Roxholme Avenue,53.821787326759569,-1.524305159944664
Harehills Ln Roxholme Avenue,53.821649741427102,-1.523607955056320
Harehills Lane Roundhay View,53.820099368964101,-1.520238176743876
Harehills Lane Hilton Place,53.819834777997535,-1.519253858251611
Spencer Pl Leopold Street,53.811608203928316,-1.525392313604723
Spencer Pl Leopold Street,53.811896048161344,-1.525449811603637
Spencer Place Cowper St,53.814185368418237,-1.524786078838336
Cowper Street Hamilton Pl,53.814573462018515,-1.527469954078776
Cowper Street Hamilton Pl,53.814681552668333,-1.527529490784654
Cowper Street Chapeltown Rd,53.815022423570341,-1.531945392248873
Cowper Street Chapeltown Rd,53.815102245836343,-1.531671117333065
Mandela Centre,53.811151159732077,-1.534919526019127
Mandela Centre,53.811419199300985,-1.534506517549974
NSCD,53.812882828861966,-1.534141001730261
NSCD,53.813115092078931,-1.533773930216269
Cowper Street,53.814943784131501,-1.532523414075259
Cowper Street,53.814763735731923,-1.532449476569718
Reginald Centre,53.817860380163666,-1.531366979246581
Chpl Allerton Hosp,53.822619097094410,-1.532407649386936
Trinity S,53.794370607608229,-1.544319713327509
Corn Exchange G,53.796543246764614,-1.538967504307454
Cultural B,53.796533421173919,-1.536417136807630
Cultural C,53.796529369952353,-1.535369664880517
Cultural D,53.797008284115073,-1.531401983567431
Cultural E,53.796635124976284,-1.532514386089489
Mayville Avenue,53.811536612874789,-1.575889274278539
Ring Rd Roundhay Park Ln,53.848246776487002,-1.499685195211709
Harehills Avenue,53.820359087012371,-1.513308560436921
Ravenscar Avenue,53.824436437001012,-1.508111413003208
Atkinson St Fox Way,53.785278176482251,-1.526645519775721
Kirkstall Road ASDA,53.807853841071989,-1.586859955900424
Donisthorpe Street,53.786306374248035,-1.529836450368730
South Accommodation Rd Donisthorpe Street,53.786083406368284,-1.530279093123695
South Accommodation Road,53.787583834355772,-1.523295559824163
East Street,53.792281803154765,-1.529420531911882
Flax Place The Avenue,53.794619665740115,-1.529667630804315
Flax Place The Avenue,53.794897568965325,-1.529482353652289
Ellerby Lane Spring Close St,53.791856646522426,-1.524173105261366
Fforde Grene Jct,53.817118466071555,-1.516535747371579
Lascelles Terrace,53.814739411520364,-1.519464018788755
Elford Place,53.812742940294100,-1.521430812574443
Spencer Place,53.810852402361995,-1.525188234388664
Spencer Place,53.811235442624167,-1.524318264946214
Barrack Road,53.810472830689172,-1.526938962540061
Barrack Road,53.810284988095873,-1.527168871928306
Roseville Road,53.811063232644031,-1.523955733784063
Roseville Road,53.810856818413726,-1.524034004151338
Queen Street,53.772590823865684,-1.516334152209677
First Direct,53.774635971241878,-1.515309201711766
First Direct,53.773836559013141,-1.515439792122510
Pontefract Road Jct,53.774755843257736,-1.513835986562283
Pontefract Road Jct,53.774176015635106,-1.512704682177120
Ida Street,53.773135581338046,-1.511032526118077
Ida Street,53.772837998671385,-1.510793216809897
Haigh Park Road,53.771037725661358,-1.507946587607245
Royal Mail,53.766247345512952,-1.499325046348849
Royal Mail,53.766121328313218,-1.499281033431937
Green Hill Lane Leysholme Dr,53.787728333248836,-1.597044830895733
Green Hill Lane Leysholme Dr,53.787852478749450,-1.596542760448850
Green Hill Lane Green Hill Gdns,53.788083308432007,-1.593034356520239
Green Hill Lane Green Hill Gdns,53.788162498391976,-1.592532705251486
Five Lane Ends,53.788332841332590,-1.589768585673019
Alexandra Rd Kelsall Road,53.807146871107683,-1.569829097506393
Alexandra Rd Kelsall Road,53.806885193736655,-1.569543257372286
Civic G,53.801660271390617,-1.549175283570969
Civic I,53.801542632975512,-1.548963979838247
Carlton Hill Carlton Gate,53.806818641466492,-1.544215185949676
Headingley Campus,53.827480779497385,-1.593929033665421
Stainbeck Road Kings Mount,53.834364487118670,-1.541226805443752
Stainbeck Road Kings Mount,53.835797620291309,-1.539934721526541
City Evangelical Church,53.780781558933114,-1.558990009698361
North Park Avenue Lidgett Park Ave,53.837705306684327,-1.517605664995715
Lowfields Road,53.784006401207336,-1.575923943096941
Pinfold Lane,53.796441028181391,-1.592695419605001
Armley Town Street,53.796998831145409,-1.590215428145872
Parkside Green,53.832770248411258,-1.566938101569576
Brudenell Road Mayville Rd,53.811194108343280,-1.573083194755910
Armley Moor,53.796983359426704,-1.596257827360609
Pinfold Lane,53.796573833249738,-1.592102059800546
Armley Town Street,53.797222539037414,-1.589924798048868
Middleton Rd Windmill Road,53.762912536457492,-1.523544540183910
Crab Lane,53.797555226051522,-1.587340659193865
Leafield Drive,53.844679177330562,-1.547406416082151
Gledhow Towers,53.831992585571840,-1.525283582368422
Wellington L,53.795770389780394,-1.550847611070158
Mexborough Street,53.816137143669820,-1.538965247571465
Lovell Park,53.802288628978175,-1.537158418361725
Reginald Centre,53.817113754864487,-1.531208227056421
Allerton Grange Ave,53.839852720309153,-1.526456089235206
Liberty Dock,53.789846503759371,-1.529538845922704
Old Run Rd Belle Isle Road,53.770508915754455,-1.535368606847101
Long Causeway Dunstarn Drive,53.846668342780042,-1.580352726006120
Long Causeway Dunstarn Drive,53.846515181007653,-1.580247860662849
Buslingthorpe Lane,53.813439976824775,-1.538767017528804
City Square F,53.798146617265665,-1.546966014005900
Wesley Road,53.796318569463338,-1.588415481476582
Wesley Road,53.796030128955053,-1.588175404715858
Cottingley Vale,53.768977497946388,-1.583372781102045
Dial Street Easy Rd,53.791261341101972,-1.521386809513326
Weetwood Lane,53.828226844492782,-1.583453966156093
St Andrews Street,53.801191142430959,-1.563285385276066
St Michaels Church,53.818920080287619,-1.574569235562101
Cross Lane Tong Rd,53.792681233534033,-1.594523057814274
Bow Street Zion St,53.792413102460607,-1.528523447998691
Moor Allerton Ctr A,53.844991166787672,-1.551506761068284
Woodhouse Lane,53.810426754284045,-1.557266755556070
Byron Street,53.802383256707053,-1.533741086098023
Kirk Beston Close,53.772455762075254,-1.568089810795016
Cardinal Heenan Turning Circle,53.838914299240187,-1.560963229250065
Cardinal Heenan Turning Circle,53.838976267680103,-1.560704236966774
Cardinal Heenan Turning Circle,53.839092105694093,-1.560429483320868
Cardinal Heenan Turning Circle,53.839370944709778,-1.560487352262762
Cardinal Heenan Turning Circle,53.839568950656819,-1.560561264763145
Cardinal Heenan Turning Circle,53.839732006742914,-1.560909089729909
Cardinal Heenan Turning Circle,53.839705877298734,-1.561137317888347
New Bank St Croft House Lane,53.750433583258015,-1.593413245729699
Torre Road,53.799269717295886,-1.508056620324968
Armley Moor,53.796802071714474,-1.595804123537997
Station C,53.796086834193886,-1.546563124690803
Cockburn High School,53.759874647525109,-1.558814573702777
St Urban's Primary School,53.840151254177535,-1.560038468141414
Brandon Street,53.796069888994062,-1.568788613477312
King George Avenue Croft House Mount,53.753684691810335,-1.595307942147107
Cardinal Ave Cardinal Grove,53.762679822479903,-1.568948531731583
Cardinal Ave Cardinal Crescent,53.764566105391445,-1.568610657734191
White Rose Ctr stand A,53.760461206089580,-1.574386344328504
White Rose Centre B,53.760425631702589,-1.574492882265671
White Rose Ctr stand C,53.760398991193981,-1.574584161449318
White Rose Centre D,53.760372350615519,-1.574675440517713
White Rose Ctr stand E,53.760345763734577,-1.574781887250348
White Rose Ctr stand F,53.760319123004862,-1.574873166078815
White Rose Centre G,53.760292482205330,-1.574964444792028
City Square A,53.797559495009857,-1.548581604976054
City Square B,53.797197930820225,-1.548038946681697
White Rose Ctr,53.760265895066659,-1.575070891141271
Canal Rd Aviary Road,53.800014843543607,-1.583839705288909
Canal Road Pickering St,53.799924597820443,-1.583734320069335
Leeds Valley Park,53.762164653514084,-1.507504183392677
South Accommodation Rd Cross Green Lane,53.789521299887248,-1.524563811477553
Station C,53.795577173204784,-1.547266947042047
Station B,53.795325575483560,-1.547284835962599
Station A,53.795118687054782,-1.547241519961857
Carr Crofts Drive,53.793865304754945,-1.593828527248359
Cross Lane Tong Rd,53.792843628157492,-1.594703653049199
Easy Rd Cross Green Lane,53.790018041714923,-1.522903680695078
Wellington P,53.794176580287655,-1.557316357885499
Wellington N,53.794300222509726,-1.556723014053655
Winrose Drive The Clearings,53.762610763888752,-1.533665788955908
Winrose Drive Winrose Ave,53.763750247990515,-1.530846799202545
Leeds City College,53.800783874393765,-1.557611201962130
Woodhouse Square,53.801904365563665,-1.556794698651043
Leeds Dental Hosp,53.803567142252582,-1.556792357783144
Worsley Building,53.803646499739713,-1.553952121189070
LGI A&E,53.803618335394681,-1.551219308970731
Civic H,53.803364731471277,-1.548306714373009
Argie Avenue Sacred Heart RC School,53.812805976044167,-1.594693471708646
Moor Haven Court,53.847435924382047,-1.553927813199887
Holy Rosary & St Annes School,53.812160265901312,-1.530929354794102
Leeds Dock C,53.792515347935854,-1.536309617666115
Dewsbury Road,53.759651493507228,-1.569131204604298
Leeds Dock A,53.790915415815640,-1.533974449351407
Oatland Rd Oatland Place,53.810261633742861,-1.542006210281394
Deanswood Hill,53.847743006124219,-1.559198919571757
Holy Family RC Primary School,53.796759711024180,-1.580835619982235
Clay Pit Lane Arena,53.804072207993869,-1.542878384666739
Deanswood Hill,53.847790843164894,-1.559988813486411
East Park Road Garton Rd,53.792386971195825,-1.512979509136617
Pontefract Ln Cross Green Lane,53.790091114446796,-1.512019446559616
John Charles Stadium,53.765065924171374,-1.543377769661463
John Charles Stadium,53.764849872413414,-1.543289092615821
South Leeds Academy,53.766612959971099,-1.538961519063828
South Leeds Academy,53.766566154738477,-1.538476572769617
Cardinal Rd Waincliffe Place,53.765896856221595,-1.566260794899916
Cardinal Ave Cardinal Grove,53.762777651808442,-1.568659315601847
Cardinal Ave Cardinal Crescent,53.764970772350033,-1.568667192351716
Dyer Street,53.796640862551563,-1.536309682546472
Knowsthorpe Lane Long Causeway,53.785250099632052,-1.517342128238441
Cross Green Drive,53.785010823390792,-1.513732686271353
Middleton Grove,53.767195608625436,-1.545615125574468
Middleton Grove,53.767656852996680,-1.546368696883685
Old Run Rd West Grange Drive,53.768216405125926,-1.535227022280334
Clarence Rd Sayner Lane,53.787664035081477,-1.527665974364256
Middleton Grove,53.769632890702049,-1.548395584539256
Moor Rd Carr Moor Street,53.773338501059932,-1.537264351597697
Civic J,53.799149970879014,-1.548473440095691
Moor Rd Beza Street,53.775289826130091,-1.537500854607752
Aire Valley Way Pontefract Ln,53.788903325474280,-1.511684114356536
Manor Farm Rise,53.752553457263879,-1.536082284517727
Manor Farm Rise,53.753002667715265,-1.536031840732452
Manor Farm Way,53.751782692941205,-1.538987336530117
Manor Farm Way,53.751883305819895,-1.539441194433311
Burmantofts HC,53.802404147021214,-1.525313997606696
Victoria C,53.798793893172949,-1.537576433918711
Headrow E,53.799016219015918,-1.541642844625988
Civic Q,53.799481257632039,-1.548135869338529
Elland Road Park and Ride,53.776889615489026,-1.576420524654683
Kirkgate High Court,53.795327548794148,-1.536035721907851
Nesfield Gardens,53.754601452251315,-1.526550473700434
Cultural F,53.795886832159134,-1.534238174945090
King George Avenue Croft House Mews,53.751832952801387,-1.592595984110252
King George Avenue Croft House Mews,53.751868440350044,-1.592459153648081
Victoria H,53.798726957597850,-1.538867656182724
Victoria G,53.798670462871399,-1.538200260065880
Moor Rd Royal Drive,53.772247536149848,-1.531753503109391
Moor Rd Royal Drive,53.772361241792339,-1.533254333711237
West Grange Dr Belle Isle Road,53.768766156721263,-1.530988137845476
West Grange Dr Belle Isle Road,53.768593432078731,-1.530489408245889
Newhall Road Newhall Crescent,53.752718842361347,-1.532380057029145
Newhall Road Newhall Crescent,53.752539147001791,-1.532397217136968
Pontefract Ln Newmarket Lane,53.786642889888178,-1.504030357374553
Leeds Bus Station Entrance,53.796627175881895,-1.535095318621078
Wellington Bridge St Real Time Tracking,53.796733204901273,-1.560857093838558
Fairway Hill,53.810582671550286,-1.500801774074080
Clarendon Rd Mount Preston Street,53.805728655673384,-1.560429089476678
St Wilfrid's Avenue,53.812240185109694,-1.503865071122329
Wellington C,53.796482190336675,-1.553724470993356
Victoria E,53.799359659532890,-1.535125843344566
Elland Road Bus Park,53.779189366497548,-1.571025389788536
Elland Road Bus Park,53.779176032257261,-1.569811516537867
Elland Road Bus Park,53.779066655319149,-1.569387732330132
Elland Road Bus Park,53.779328986884238,-1.569855478738766
Elland Road Bus Park,53.779228870088140,-1.569507473819922
New York Road,53.800844892327078,-1.538024553517822
Victoria F,53.798901759431551,-1.535252362730435
Station D,53.795904152694874,-1.545790854470206
Quebec Street,53.796906760520550,-1.549484320540839
Civic P,53.799491730968740,-1.548530500816931
Victoria J,53.799386670329788,-1.539801733427791
Victoria K,53.799763919263867,-1.539736875160796
Victoria L,53.799961589602532,-1.539719529214618
Lowfields Road,53.778943233934776,-1.572575751329240
City Square C,53.797027222136919,-1.548055962580953
City Square D,53.797126715384422,-1.548221891211370
City Square E,53.797506767792200,-1.548900987512509
Corn Exchange H,53.796049592606302,-1.541492998275808
Corn Exchange J,53.795925562421488,-1.541964966799540
Trinity K,53.795730439189917,-1.542650241381344
Trinity L,53.795487829893283,-1.542668060280245
Cavendish Road University Steps,53.807622327734528,-1.552376218440880
Cultural H,53.796394907666297,-1.535462238327880
Southbank D,53.792055983586160,-1.543084863695271
Pickering St Canal Road,53.800307748109297,-1.582774015573432
Stourton Park and Ride,53.767087300986653,-1.517868939748606
Station A,53.795860650215637,-1.546170853019687
Station B,53.796024723342910,-1.546776331197957
Headrow R,53.799590994012476,-1.546252060539197
Wellington Q,53.796649477057706,-1.550382780875911
Woodhouse Street,53.814663749737136,-1.558254909815955
Leeds Kirkgate Coach Stop,53.795565917511304,-1.537247576730107
Civic S,53.798919316133230,-1.549280575848149
Leeds Dock F,53.791647127180355,-1.534922660841250
Armouries Drive Chadwick Street,53.789451852147487,-1.532047768906963
Armouries Drive Clarence Road,53.789727863395498,-1.531376825246666
Atkinson Street Fox Way,53.785556854043556,-1.526657562225490
Clarence Road Sayner Lane,53.787899267186816,-1.528057969104667
Clarence Road Carlisle Road,53.789495449153989,-1.529406161779155
Laneside Farm,53.755845237942530,-1.596318522405586
Wellington B,53.796135813621461,-1.550023921606472
Cultural J,53.795002502600660,-1.533337116070911
Cranmore Road,53.750531387157757,-1.524670279887935
Lavender Walk Hall Place,53.795439749672703,-1.521126731542556
Spencer Place Cowper St,53.814175839525028,-1.524649496517875
North Park Avenue Lidgett Park Ave,53.837642088325325,-1.517530409762150
