Name,Latitude,Longitude
Hunslet Cemetery,53.767697361071690,-1.524339973594401
Woodhouse Hill Road,53.769933309432936,-1.523814042706307
Leasowe Road,53.771985517549965,-1.522288747453059
Playfair Road,53.773447024346957,-1.530495969193225
Moor Road,53.771641863438056,-1.530865066817878
Moor Road,53.772082972252328,-1.531042222212920
West Grange Drive,53.769205070448130,-1.530603959960592
Barkly Road,53.766920229537952,-1.556085884675503
Cross Flatts Grove,53.768339086112590,-1.553324936061230
Cross Flatts Park,53.770915133016352,-1.549974906104475
Hunslet Fire Stn,53.772829544943392,-1.547572306050247
Oakley Terrace,53.774459404466299,-1.545991926213812
Dewsbury Road Hub,53.778859355254802,-1.544882214859676
Hunslet Hall Road,53.782362368313827,-1.544267633304252
Parkfield Street,53.784827630809701,-1.542571445663325
Hunslet Hall Road,53.780322910490128,-1.544486999792568
Oakley Terrace,53.774171625526122,-1.545949509941589
Cross Flatts Park,53.769911806016438,-1.550865593930904
Cross Flatts Grove,53.767480213538185,-1.554396010557209
Old Lane Grovehall Rd,53.767596884775173,-1.564134522687683
Old Lane Moorhouse Ave,53.769306097956267,-1.564541632912345
Co-op,53.772742274480557,-1.565295076953056
Co-op,53.772759370098974,-1.565052135581102
Beeston Terminus,53.772163178510745,-1.571719060276651
Beeston Co-Op,53.773558893285895,-1.564937663544208
Cross Flatts Drive,53.775410359142576,-1.562445205742816
Cross Flatts Pk Top,53.776562343009303,-1.560399891457646
Cross Flatts Park Top,53.776848114355680,-1.559896155729515
Cemetery Rd Tempest Rd,53.777437999459075,-1.556551599211048
Malvern Road,53.779561408646615,-1.552310503953903
Lady Pit Lane,53.781076022041852,-1.551141030751387
Northcote Green,53.782276566140219,-1.550111417689434
Northcote Green,53.782150965912358,-1.550173465183734
Hunslet Hall Rd Northcote Cresc,53.781571088067047,-1.546552601143241
Cemetery Rd Beeston Road,53.778192518875734,-1.556422251828301
Cemetery Road Junction,53.781447709266018,-1.559271372125183
Top Moor Side,53.784342365634991,-1.559408003048175
Domestic Street Balm Walk,53.786443231261963,-1.561222512452429
Domestic Street Balm Walk,53.787292343794356,-1.562382367689724
Domestic Road,53.787471320322716,-1.569620464942784
Domestic Road,53.787586744603097,-1.569224652437335
Gelderd Business Pk,53.780436670046100,-1.580618810278311
Wheatsheaf Junction,53.778307577087219,-1.583508059765280
Heath Mount,53.776332767596799,-1.573998274225426
Leeds Utd Stadium,53.777229877937096,-1.570999836152999
Leeds Utd Stadium,53.777380008534635,-1.570254757207474
City Evangelical Church,53.780965213060220,-1.560050388907951
Drysalters,53.770454584986645,-1.579094843852743
Drysalters,53.769614726454854,-1.577965364935224
Moor Rd Tunstall Road,53.775111884583573,-1.537973193416964
Beza Street Tulip St,53.776580775442632,-1.536636914898341
Church St Balm Road,53.777685029137459,-1.531677839200079
Rakehill Road,53.829719733281337,-1.430487014074660
Elmete Lane,53.829238315510509,-1.487179663533743
Roundhay Park Gates,53.830136237633745,-1.493322101728512
Oakwood Clock,53.827555783439834,-1.503866531313531
Oakwood Ln Dib Lane,53.818228288883780,-1.491475885941278
Fearnville Leis Ctr,53.815927084263315,-1.491412598884553
Colton Retail Park,53.794518599923713,-1.433468593722361
Austhorpe Lane,53.795963908625240,-1.436910453927243
Detroit Drive,53.797128380377153,-1.439900836498069
Chantry Garth,53.795309410446265,-1.443037170656920
Darnley Lane,53.793481091673904,-1.444169547483819
Laurel Hill Avenue,53.791814456010449,-1.443341503761794
Laurel Hill Way,53.791063708828503,-1.440391437483489
Ringways Whitehall Road,53.781580751289788,-1.594447896468251
Royds Lane,53.781713896720518,-1.591305177980981
Dixon Lane,53.782207360611793,-1.585806602584106
Sheepscar St North,53.812206801456583,-1.538294562096659
Scott Hall Grove,53.821818734035638,-1.543976555104903
Stainbeck Lane,53.827879373335684,-1.547070860781805
Scott Hall Rd Wensley View,53.832038358173747,-1.544047949442917
Potternewton Lane,53.823955312311540,-1.545669985412238
Scott Hall Grove,53.822177719940129,-1.543835943409458
Sholebroke Mount,53.818370680304710,-1.540140700391588
Sheepscar St North,53.810563146543203,-1.536262440601093
Lincoln Green Ctr,53.802782165130566,-1.527723933055663
Lincoln Green Centre,53.803118766644261,-1.528752650012557
Lincoln Green Road,53.802650327747273,-1.523929509403598
Bexley Wing,53.804557633448489,-1.522131351001032
St James's Hospital,53.805746568465679,-1.520508256129594
St James Hospital,53.807199588934225,-1.519747607236556
St James's Hospital,53.807231463846527,-1.518729829582776
Lovell Park,53.802567363398879,-1.537185717653034
North St Benson Street,53.805680506880137,-1.535708904824217
Sheepscar Junction,53.806533158122292,-1.535395789162954
Sheepscar Junction,53.807034643061442,-1.534919506618581
Roscoe Street,53.808351171843611,-1.533705275152162
Roscoe Street,53.808476880824600,-1.533673509478044
Enfield Centre,53.809363983591673,-1.530672019965852
Enfield Centre,53.809389164117754,-1.530216157380579
Fforde Grene Jct,53.818121648691914,-1.515673611017742
Roundhay Road Tesco,53.822288731863324,-1.510415163728764
Oakwood Clock,53.827246736523428,-1.505207123119620
Oakwood Clock,53.826478246128630,-1.506294823165808
Ravenscar Avenue,53.823349561641955,-1.508276047768012
Roundhay Road Tesco,53.821688916264556,-1.510999391561602
Copgrove Road,53.819274418688828,-1.514019845307681
Lascelles Terrace,53.814630891165677,-1.519298191986368
Elford Place,53.812885167077170,-1.521034323027616
Bramley Fall Park,53.820273497434286,-1.627522862696189
Millshaw,53.766946163146329,-1.578219671126972
Rail Station,53.767703791700129,-1.586722996456652
Low Moor Side Ln,53.769978764890361,-1.634082119410441
Low Moor Side Ln,53.770265032302184,-1.633639647686854
Wolley Avenue,53.774321153670329,-1.622846461791536
Walsh Lane,53.772331801958792,-1.627643655579091
Ring Rd Whitehall Drive,53.782206509866022,-1.598782257737661
Branch Road,53.782738406496804,-1.604680799566809
Ring Rd Whincover Drive,53.786337508991331,-1.608608363660479
Ring Rd Hare Farm Avenue,53.796085901869752,-1.624351652496911
Ring Rd Butt Lane,53.793800154806121,-1.620607331781043
Ring Rd Tong Road,53.792268438646310,-1.616598493750919
Ring Rd Stonebridge Lane,53.790758429260201,-1.613788909437401
Ring Rd Whincover Drive,53.785390472913647,-1.607600290122123
Branch Road,53.782971538265002,-1.604511668652537
Ring Road Lower Wortley,53.785691033382314,-1.608811683035509
Whincover Hill,53.785648467228796,-1.609540595251762
Whincover Gardens,53.784624957240197,-1.612661388228536
Old Farnley,53.786324244713427,-1.618443616755841
Butt Lane Tong Approach,53.792726794364199,-1.622256448390999
Butt Lane McDonalds,53.795635720333223,-1.621243562045394
Bramley Town End,53.804931644397072,-1.621979800425234
Bramley Town End,53.804984566207565,-1.621660452237552
Queensthorpe Ave,53.799633784611430,-1.623591209378973
Community Centre,53.800745883350643,-1.622822113453207
Gamble Hill Drive,53.797787247232080,-1.625186640289745
Henconner Lane,53.795821201035764,-1.620209577680693
Henconner Lane,53.795640628856432,-1.619953130389038
Farrow Bank,53.794077109007830,-1.614441565008903
The Heights East,53.793560409864028,-1.613080074983046
Heights Dr Greenthorpe Road,53.797818823027896,-1.618096451298566
Queenswood Road,53.819885667081643,-1.593850521356289
Queenswood Road,53.819749206103005,-1.593365767856826
Woodbridge Place,53.822536171675331,-1.598913811333501
Ghyll Road,53.828145367057275,-1.601822862070813
Beckett Park,53.830210183278794,-1.603808839928420
Butcher Hill Old Oak Drive,53.833128846692290,-1.605802194774336
Latchmere Road,53.835493065533441,-1.608667142822373
Old Farm Approach,53.833663751643208,-1.607210290203652
Old Oak Drive,53.832330487826901,-1.606280709433279
Butcher Hill Abbey Grange School,53.834106740271523,-1.610761764613983
Butcher Hill Lea Farm Road,53.833480673478256,-1.614505465131127
Butcher Hill,53.832815973993085,-1.614633120353590
Hawkswood Avenue,53.829369514563275,-1.616168861214743
Hawkswood Avenue,53.829802574813229,-1.616681479915618
Vesper Road Surgery,53.826829999526723,-1.611847059363162
Lea Farm Drive,53.825727019511085,-1.607102180043144
Eden Drive,53.817318073631149,-1.589440179241147
Hyde Park Picture House,53.812087645890976,-1.569095126968432
Hyde Park Road,53.809727071434004,-1.565019061301698
Parkland Drive,53.836887958954520,-1.554981999550719
Parkside Avenue,53.831208619991976,-1.562608739223059
Northside Retail Pk,53.828980463519443,-1.565321117844260
Northside Retail Pk,53.829097687995251,-1.565426257077135
Green Road,53.828510267123079,-1.567027592069591
Green Road,53.828689800973464,-1.566964969842294
Green View,53.829684077284064,-1.568519638084990
Parkside Green,53.832653409013709,-1.566939306095426
Parkside Road,53.835732721170054,-1.563473362135783
Wharfedale Avenue,53.817499776791820,-1.549871171560978
Shaw Ln Otley Road,53.823897554540459,-1.579136989262061
Grove Lane Junction,53.824061519741065,-1.564627628102246
Meanwood Health Centre,53.826130662656233,-1.565153103301097
Woodhouse Cricket Club,53.821542156659078,-1.558957320406379
Ridge Grove,53.820355202476272,-1.556372287661906
Sugarwell Court,53.818505304696075,-1.551971719355872
Wharfedale Avenue,53.817099300476833,-1.548538843971169
Buslingthorpe Green,53.813350991191783,-1.543703923123998
Meanwood Rd Cambridge Road,53.810996939554968,-1.541557787486511
Craven Road,53.812346602903340,-1.549060687466131
Charing Cross,53.812830350030396,-1.551029844678924
Charing Cross,53.813028248895222,-1.551073293081541
Foundry Lane Parkway Grange,53.811397330907063,-1.478892729806998
Foundry Lane Parkway Grange,53.811291259839599,-1.479304087607463
Foundry Ln Foundry Mill Drive,53.811441542216180,-1.476659718060183
Foundry Lane York Rd,53.808885083250360,-1.467610370842858
Foundry Lane York Rd,53.808971520533390,-1.466834793101631
Cross Gates Rdbt,53.808402020517349,-1.454116364157296
Cross Gates Rdbt,53.808159978754311,-1.454256178028981
Poole Road,53.808168675340554,-1.458158779937185
Cross Gates Ctr B,53.806055989409188,-1.452112049155402
Cross Gates Station,53.804184710086048,-1.451726459834538
Skyliner Roundabout,53.798561134548606,-1.442614550381711
Cross Gates Ctr C,53.807254843979465,-1.448937875730858
Cross Gates Ctr D,53.807352730355227,-1.448723997441067
Kelmscott Green,53.812615471820550,-1.438115005015766
Smeaton Approach Dovedale Garth,53.810462425802783,-1.429457103235004
Smeaton Approach Dovedale Garth,53.810317037131568,-1.429124974527629
Smeaton Approach Rockingham Road,53.811603643758943,-1.431294417319544
Barwick Road,53.815834158141868,-1.440243920668883
Stanks Rise,53.819507600346277,-1.437749435069392
Stanks Rise,53.820238716088859,-1.438408014070087
Swarcliffe,53.822261774858873,-1.440492491390781
Swarcliffe,53.822932437337464,-1.441683650339574
Grimes Dyke School,53.824659070023749,-1.445762446235511
Grimes Dyke School,53.824710468457752,-1.445214868778531
Farndale Place,53.824629099873064,-1.449013848157573
Stanks Lane North,53.820346753891485,-1.446183888221116
Stanks Dr Swarcliffe Ave,53.822672012076552,-1.441732683644086
Southwood Gate,53.817184933558814,-1.450524022462221
Eastwood Lane,53.815528469888797,-1.446034746312302
Swarcliffe Approach,53.818683388842189,-1.451932239173806
Mill Green Place,53.820193706915092,-1.452003680597040
Mill Green Gardens,53.821974858570663,-1.450370241522050
Cross Gates Station,53.803573835203963,-1.451795161552315
Byron Street,53.801312723090184,-1.533494842256622
Cross Stamford St,53.805652860328230,-1.530910845782371
Grant Avenue,53.808792083808250,-1.526942688981525
Cross Stamford St,53.805669291839699,-1.530515860140327
Red Hall Croft,53.835587552992649,-1.461345656783629
Sledmere Place,53.825247770114295,-1.450646453343591
Sledmere Place,53.824841037102921,-1.450150445777087
Ring Rd Gelderd Road,53.777899555880921,-1.585075085495858
Ringways Ring Road,53.780905694778866,-1.594166062302166
Ring Rd Royds Lane,53.780174145417284,-1.590485478759655
Ring Rd Gelderd Road,53.777139064472372,-1.583489272754794
Turning Circle,53.787918623012097,-1.639936721230590
Fawcett Avenue,53.783868811666181,-1.595958703688387
Western Grove,53.785184224100782,-1.594231042990478
Dixon Lane Kellett Crescent,53.782963954151221,-1.586269627015589
Crown Point D,53.790369183229309,-1.539156598767445
Brookfield Street,53.787150760036994,-1.534319707719059
Stafford Street,53.782445541516260,-1.528574422726509
Church Street,53.779487333442020,-1.523736302140167
Haigh Park Road,53.770286328285138,-1.506635410207572
Intermezzo Drive,53.768369116960400,-1.503790508479427
Intermezzo Drive,53.769672482379377,-1.505990219329219
Queen Street,53.772132085465401,-1.516248387067804
Severn Road,53.778006737852273,-1.519837977542152
Balmoral Chase,53.778421600522485,-1.522443322824518
Church Street,53.780502667490175,-1.525925277188489
Stafford Street,53.782908379747944,-1.529707474266127
Brookfield Street,53.786429152391989,-1.533659872903467
Crown Point F,53.790575924928007,-1.541507117413728
Headrow F,53.798895606131786,-1.540657312787799
Headrow D,53.799100468056857,-1.542522501262406
Headrow C,53.799174336074643,-1.543037897686558
Headrow B,53.799304955128982,-1.544296617446924
Civic O,53.799507444944091,-1.550321863202232
Civic N,53.799710002484460,-1.551610213245407
Civic K,53.799613326541362,-1.547405690095270
Headrow G,53.799140015591213,-1.541110113579647
Headrow H,53.799093392866922,-1.540670334927654
Victoria A,53.798879339445612,-1.538759709700541
Victoria B,53.798851442576613,-1.538517099855727
Victoria D,53.798765701225172,-1.537257917553574
Victoria N,53.799583408875847,-1.539541478144148
Victoria P,53.798523563496168,-1.539735266938143
Victoria Q,53.798308208883810,-1.539828715893818
Corn Exchange D,53.797213110276090,-1.540205056633957
Corn Exchange B,53.796711254487590,-1.540590079297978
Corn Exchange A,53.796388453803850,-1.540790962527463
Trinity M,53.795920626148984,-1.543027702844854
Trinity N,53.795877709952464,-1.543559509677285
Trinity R,53.796029634033509,-1.543330142855792
Trinity O,53.795816643013545,-1.544045968732666
Trinity P,53.795746067772242,-1.544395899320901
Wellington D,53.796866529887517,-1.558001578634721
Wellington E,53.796894387353518,-1.558244190180045
Wellington F,53.797100153888820,-1.557983942037867
City Square G,53.797427717931285,-1.547004120768676
City Square H,53.797167075350423,-1.547006927901608
Harehills Lane Harrogate Rd,53.824369491565697,-1.531826086318508
City Square I,53.796915420433855,-1.547009638194951
Harehills Lane,53.818115661959219,-1.516417951486559
Harehills Lane,53.817420125207683,-1.515560183678035
Harehills Ln Berkeley Road,53.812601861844804,-1.513170571398460
Harehills Ln Compton Road,53.809433302870360,-1.509790396986857
Harehills Ln Compton Road,53.809712166834387,-1.509847889958435
Harehills Ln Lupton Avenue,53.805918054016360,-1.505184830577126
Five Lane Ends,53.788544806084033,-1.588673668237711
Highfield Gardens,53.788901391002604,-1.585209458292816
Highfield Gardens,53.788732459189909,-1.585742373034297
Copley Hill,53.790395385612300,-1.575495247990426
Copley Hill,53.790492262437340,-1.574932640295302
Clyde Gardens,53.791087379366509,-1.572938124788423
Clyde Approach,53.791664324701259,-1.570898199075266
Clyde Approach,53.792171186667460,-1.569375048778294
Lupton Ave Torre Lane,53.799659108173380,-1.508765645148077
Lupton Avenue Nowell Mount,53.803384302948288,-1.507583334937876
Lupton Avenue Nowell Mount,53.803563245149576,-1.507383847946482
Lupton Ave Harehills Lane,53.805931232031497,-1.506202058181900
Shakespeare Gardens,53.803823813383538,-1.518434783601061
Ashley Road,53.808752771597085,-1.517072345125222
Harehills Nice View,53.816086909064580,-1.517048833141241
Harehills Place,53.814002211249736,-1.517179100242150
Conway View,53.811548409445209,-1.517161723640978
Ashley Road,53.808859828499081,-1.516873699088394
Stanley Road,53.808435453260579,-1.516392633004442
Stanley Road,53.808191502117801,-1.516076541018103
Compton Centre,53.808489665892751,-1.509816585782125
Shaftesbury Jct E,53.801884069464371,-1.499083040145421
Shaftesbury Jct D,53.801858627139659,-1.499447743600484
Shaftesbury Med Ctr,53.798913527703881,-1.498010115599432
Pontefract Ln Pontefract Street,53.794586958546631,-1.519147767435241
Upper Accommodation Rd Dial Street,53.793028482973142,-1.522763276969810
East Park Parade East Park Road,53.792428394464082,-1.512113773307358
Ivy Street,53.796825830315747,-1.508267383868679
Ivy Street,53.797170095517899,-1.508931351441072
Neville Parade,53.791928636525249,-1.495588811024814
Meadowfield School,53.793923145973636,-1.491132191341952
Halton Moor Avenue,53.792317966042141,-1.492001684421707
Neville Road,53.796428249445121,-1.488414776018012
Tunstall Road,53.776068037309344,-1.543561908658138
Old Run Rd West Grange Drive,53.769204405831140,-1.535049229007287
Hunslet Centre,53.778874987655371,-1.527992240901717
Hunslet Health Centre,53.779585984653203,-1.525950778254945
Hunslet Centre,53.778257045319357,-1.528560638803461
Dunhill Rise,53.800537051903277,-1.484508340442461
Garland Drive,53.797701362292266,-1.443278766877825
Whitkirk Church,53.797455780810267,-1.450447826198087
Queensway,53.797445837894607,-1.456156308724518
Temple Moor School,53.797349897223654,-1.462791973905937
Halton Lidl,53.795939453682358,-1.471038218612033
Temple Newsam Park,53.785867312156412,-1.459720944498139
Halton Library,53.796898706804448,-1.468445285608470
Sycamore Avenue,53.799361656015918,-1.464451529570935
Temple Walk,53.801447226774023,-1.458518692450355
Ring Rd Cross Gates Lane,53.809114105717754,-1.452588516923849
White Laithe Green,53.836071104933360,-1.452996986403682
White Laithe Walk,53.833997001861142,-1.453464655220523
Naburn Place,53.832364779864825,-1.456236082932961
Naburn Close,53.829645732582357,-1.455207741261709
Baildon Path,53.827618022364682,-1.454018622113249
Hebden Approach,53.826697285939012,-1.453149431272161
Seacroft Ring Road,53.823676856653194,-1.455026888155305
Seacroft The Green,53.819432380351415,-1.458530004672473
Cross Gates Lane,53.813640005087073,-1.455643039196857
Melbourne Rdbt,53.807547082964810,-1.467885467220785
Seacroft Hospital,53.806746388801663,-1.471782996386641
Killingbeck Cem,53.805764090647841,-1.475287836710959
Killingbeck ASDA,53.804696246416363,-1.477745850006762
Woodpecker Junction,53.798460192371302,-1.525768429276312
Pontefract Lane,53.798097334664469,-1.522660216134901
Berking Avenue,53.798070753249952,-1.518257747529373
Torre Road,53.799032148593966,-1.509304349646542
Dawlish Terrace,53.800104257776624,-1.505541710845381
Shaftesbury Jct B,53.801338991875618,-1.499848691148914
Gipton Approach,53.801602738704197,-1.492026175727983
Highways Flats,53.803495702875736,-1.482786650426888
Killingbeck ASDA,53.805001889920810,-1.477757238034797
Killingbeck Cem,53.806468524469452,-1.474003502376823
Seacroft Hospital,53.807033790189152,-1.471733829735277
Melbourne Rdbt,53.808083641292733,-1.467271250979202
Wykebeck Valley Rd Coldcotes Grove,53.807861953169699,-1.488624920608566
Highways Flats,53.803110218288111,-1.483019149270883
Halton Dial,53.801393541151292,-1.489326095462034
Gipton Approach,53.801439096461742,-1.493713487950317
Shaftesbury Jct A,53.801085756282248,-1.499472126284565
Dawlish Terrace,53.800107858297643,-1.504235955200820
Torre Road,53.799140963246899,-1.507344555418139
Raincliffe Road,53.797529623017709,-1.513345050845180
Berking Avenue,53.797875157173415,-1.518791354330487
Pontefract Lane,53.797843807672962,-1.522192455151565
Eastdean Gate,53.823165077282106,-1.459119927412141
Bailey's Lane,53.823772632928652,-1.464322721585411
Boggart Hill Road,53.827167030840464,-1.479973312393214
Boggart Hill Road,53.827181317154533,-1.479122354505593
Boggart Hill Cres,53.826823780732987,-1.475450228796222
Ramshead Hill,53.826900228117410,-1.470344620533899
Monkswood Gate,53.833073968411348,-1.468078739452932
Barncroft Drive,53.830493231663709,-1.473930616382106
Barncroft Rise,53.828770146347232,-1.472478464276285
Ramshead Hill,53.826807267164035,-1.469646942582249
Grove Lane Junction,53.824864612962280,-1.563024186514255
Stainbeck Avenue,53.827551923735250,-1.560535036752007
Beckhill Approach,53.830966743207178,-1.555485348947697
Beckhill Approach,53.830956010654504,-1.555014453674408
Miles Hill,53.825006193768068,-1.555077466390718
Miles Hill,53.824944968553801,-1.555533864444304
Stainbeck Avenue,53.826803722942799,-1.559935169490787
Harley Road,53.800706353837363,-1.648284108888141
Swinnow Co-Op,53.801688896421013,-1.646195794516424
Swinnow Co-Op,53.801687821761959,-1.645831406751994
Rycroft Drive,53.803071521395843,-1.642646361509810
Swinnow Rd By Pass,53.804034533480248,-1.640072074459864
Rycroft Drive,53.802793939622760,-1.642997942817116
Swinnow Ln Wellstone Rise,53.800681631861622,-1.642955139857717
Swinnow Lane Rycroft Ave,53.803892109425455,-1.646587228422971
Fairfield Avenue,53.807330618893772,-1.645267586084047
Fairfield Mount,53.806858739315160,-1.640731230659620
Station Mount,53.806408064271309,-1.637318476328176
Fairfield Mount,53.806806220720574,-1.641202415955328
Fairfield Avenue,53.807380214358290,-1.646846434437418
Cultural A,53.796545572977948,-1.537236798741193
Cultural G,53.796393261413826,-1.535037178683119
Merrion A,53.801106117097689,-1.545233632237244
Merrion C,53.801663467508377,-1.545257971604182
Merrion B,53.802258723405622,-1.545798139443423
Merrion D,53.801412785102663,-1.543150223303638
Headrow M,53.800393903703281,-1.544664387733566
Headrow N,53.800214265555475,-1.544696698110649
Headrow L,53.800529870456387,-1.544966572397392
Headrow K,53.800314281556361,-1.544999270541194
Willow Road,53.804538040061217,-1.576764628380941
Kirkstall Road ASDA,53.807383759741775,-1.586074939640685
Kirkstall Lights,53.815111283265317,-1.601369186422463
Commercial Road,53.813244000538653,-1.599336593719919
Woodside View,53.809223940779887,-1.590627795619648
Haddon Road,53.806955355101174,-1.584348051400911
Cardigan Fields,53.805627235014640,-1.579790597557145
ITV Yorkshire,53.802649957683393,-1.571530109350607
Washington Street,53.801154633757818,-1.568098791771423
Leeds City College,53.800005412110600,-1.558560714233542
Woodsley Road,53.805327694253215,-1.571335794604308
Burley Medical Ctr,53.807722432129381,-1.580073366933417
St Michael's Lane,53.810581600489016,-1.585527117118053
Eden Road,53.814853376929690,-1.594142151898611
Kirkstall Lane Church View,53.816797646719124,-1.597662343295076
Kirkstall Hlth Ctr,53.817198339108224,-1.599222957514209
Norman Mount,53.819471783953951,-1.601768330452833
Kirkstall Lane Headingley Station,53.817066250606928,-1.594682770464846
Langdale Avenue,53.817675617253514,-1.586246994773860
Headingley Stadium,53.818956695489668,-1.582437014765695
Kirkstall Lane Headingley Station,53.816957782630453,-1.594501551442047
Kirkstall Lane,53.816264884704097,-1.599611569863539
Kirkstall Leis Ctr,53.816118209493659,-1.601450768135089
Burley Hill Drive,53.813997396085917,-1.590869877829553
Talbot View,53.812314770732506,-1.587696968282023
St Michael's Lane,53.810580656255283,-1.585253770396703
Cardigan Road,53.806019950931855,-1.573910154337417
Woodsley Road,53.804745742359550,-1.569458868120000
Leeds City College,53.800138607019683,-1.558119018203407
Wellington Bridge,53.796706464021334,-1.560918098812888
Canal Street,53.795534658067673,-1.569917495687853
Armley Prison,53.797586577272540,-1.575711128467048
Albion Way,53.797087275172288,-1.571784136351684
Armley Road Bottom,53.795203570323650,-1.565336248670674
The Roundhouse,53.795022275967170,-1.564913058565458
Ledgard Way,53.798848361251551,-1.587009145976933
Branch Road,53.798555887171780,-1.585600082360100
Pickering Street,53.798919252810919,-1.581527663709785
Armley Ridge Road,53.801660489331184,-1.602650611901840
Armley Grange Drive,53.802773178862843,-1.607559589923805
Cockshott Lane,53.803825642661046,-1.613365237230885
Bramley Town End,53.805279437598706,-1.621111157011219
Greenhill Mount,53.804525354358766,-1.615742730170725
Cockshott Lane,53.804104751670813,-1.613514512103484
Armley Grange Drive,53.803024388599539,-1.607420592451401
Armley Ridge Road,53.801656159293998,-1.601344896596593
Moorfield Road,53.800634215706637,-1.596769364170463
Armley Park Gates,53.799286991175947,-1.591741736330301
Neath Gardens,53.811202055157978,-1.485713995871443
Wykebeck Valley Road,53.804920553128305,-1.488083685992910
Gipton Approach York Road,53.802620392737978,-1.492499758303781
Parkfield Way,53.813570737512954,-1.478501282236147
Moresdale Lane,53.814750520875172,-1.474917458110348
Ironwood View,53.815684850400736,-1.468693743420173
Redmire Drive,53.816520442584832,-1.464582238436158
Foundry Mill Street,53.816602306128111,-1.460784019343531
Brooklands Lane,53.819697055445801,-1.469493646255362
North Parkway,53.822035425491258,-1.469828699445738
Ironwood Approach Hawkshead Cresc,53.812491783420676,-1.468172178210520
Coldcotes Drive,53.809809667492587,-1.490104664602231
Coldcotes Circus,53.809115846096049,-1.493939946141446
Harehills Park,53.810276335189393,-1.500623175114653
Foundry Drive,53.812451802078819,-1.507234125860605
North Farm Road,53.812027768122178,-1.498172444609215
Gipton Lidl,53.814072994517339,-1.495064910277950
Gipton Lidl,53.813820191804169,-1.494794569051275
Hetton Road,53.819306311153198,-1.502065222069284
Hollin Park Mount,53.822220634542582,-1.491868101826588
Oakwood McDonalds,53.820899034201624,-1.496046207676374
Hetton Road,53.819143021784001,-1.501702606555460
Arlington Road,53.817998513802031,-1.505316012551738
Scott Hall Rad Carr Manor Parade,53.835100247419426,-1.543254944794837
Mexborough Street,53.815551137861554,-1.538500838888919
Buslingthorpe Lane,53.813474701357947,-1.538447698573593
Sholebroke Mount,53.819148150084679,-1.541316979781268
Scott Hall Rd Potternewton Lane,53.825613171568556,-1.546745876293524
Scott Hall Rd Wensley View,53.832075462406685,-1.544351431615927
Stainbeck Lane,53.827772381382935,-1.547299904513229
Scott Hall Rad Carr Manor Parade,53.835254481494864,-1.543633152508418
Ridge Road,53.816013741753963,-1.546682326716267
Parkside Road,53.835518288094178,-1.563825086744344
Parklands Gardens,53.834625147246847,-1.557999420623181
Parklands Gardens,53.834849558315021,-1.557921082940839
Stainbeck Lane,53.832693911621234,-1.560769938928390
Stainbeck Lane,53.832918324606837,-1.560691619707718
Parkside Avenue,53.831191419500541,-1.562821633108550
Grove Lane Junction,53.824885626803827,-1.563859507739799
Meanwood Health Ctr,53.826953100114643,-1.566405558877334
Woodhouse Ckt Club,53.822456704492709,-1.560800994081379
Grove Lane Junction,53.824036144385566,-1.562592253523610
Sugarwell Court,53.818860013147074,-1.553091958034717
Ridge Grove,53.820374524540263,-1.556736643802374
Buslingthorpe Green,53.813613133470724,-1.544095954304542
Ridge Road,53.815371713855370,-1.545656453220828
Meanwood Rd Sackville Street,53.809721832993127,-1.539521560150243
Meanwood Rd Cambridge Road,53.811828321918625,-1.542733300948042
Meanwood Road Sheepscar Court,53.808500617727347,-1.537484863134719
Manor Wood School,53.834902230313716,-1.550322897311698
Manor Wood School,53.835744047515568,-1.549508519458713
Carr Manor School,53.833506012705485,-1.551902904636554
Carr Manor School,53.832995078506222,-1.552273024819184
Stonegate Crescent,53.829082346254943,-1.558756622376216
Stonegate Crescent,53.829637847939907,-1.558279793996116
Servia Gardens,53.810159798291750,-1.543586696960147
Servia Gardens,53.810352231026059,-1.544556536673188
Carlton Hill,53.808930997844676,-1.541899218858914
Stainbeck Ln Wensley Drive,53.828437992944330,-1.542689274922855
Carlton Hill,53.807965140963326,-1.540816384715656
Lovell Park Hill,53.804417895097785,-1.539260776143193
Stainbeck Ln Harrogate Road,53.828864440478576,-1.539038292335728
Merrion E,53.802402130626462,-1.540968232380739
Stainbeck Ln Wensley Drive,53.828615602639999,-1.542125200796351
Kepstorn Road,53.833003878912336,-1.592599304617699
Kepstorn Road,53.833020667887702,-1.592249666949223
Ancaster Road,53.832040939168152,-1.589600190485710
Ancaster Road,53.832078602786254,-1.590101231772226
Glen Road,53.829933138069016,-1.585640098369747
Glen Road,53.830503184340017,-1.586743612572575
Weetwood Lane,53.827928880103784,-1.583061909457441
Weetwood Lane,53.828065329941524,-1.583531531288505
St Chads Drive,53.825243572363206,-1.581083243714029
Grafton Street,53.803719013451619,-1.539830241533825
Lovell Park Hill,53.805290338672101,-1.539418246571566
Craven Road,53.812217348803287,-1.548150850382846
Melville Road,53.814070987365454,-1.551107720047077
Melville Place,53.814626725613536,-1.548307206023861
Melville Road,53.813951988065952,-1.550531858785233
Lawnswood School,53.836916400987555,-1.593412330353973
Melville Place,53.814290291585060,-1.547278050209028
Lawnswood School,53.836064115123882,-1.593876450154337
St Chads Drive,53.825749001071422,-1.581685882072694
St Anne's Road,53.824370442075107,-1.580712162340911
Miles Hill Road,53.824893931363917,-1.551478236130796
Stainbeck Avenue,53.826718073458537,-1.561090681115625
Potternewton View,53.824871151253923,-1.547802103552945
Miles Hill Road,53.825003603491112,-1.549562913420462
Stainbeck Lane Scott Hall Rd,53.828406258068050,-1.546168798499723
Stainbeck Lane Scott Hall Rd,53.828494985235302,-1.545863981065768
Stainbeck Lane Stainbeck Rd,53.831641603222188,-1.555690924981561
Stainbeck Lane Stainbeck Rd,53.831631603095090,-1.555417537349759
Stainbeck Lane Miles Hill Crescent,53.828866631806818,-1.549080897118773
Grove Lane Bridgewater Court,53.823886110250314,-1.568320923769532
Grove Lane Bridgewater Court,53.823788665641672,-1.568716896847451
Grove Ln Grove Road,53.824115411006517,-1.572116405461291
Grove Ln Grove Road,53.824261756450781,-1.572828911103729
Moor Road,53.825897202478252,-1.575258195341870
Shaw Ln Otley Road,53.824023648235894,-1.579211682928772
Moor Road,53.826162957389073,-1.574161678641353
Monk Bridge Rd Highbury Lane,53.827063554036648,-1.569625211453480
Monk Bridge Road Monk Bridge Terrace,53.827061810183757,-1.569139072013461
King Lane Southlands Ave,53.836941664971818,-1.540606009949117
Oatland Rd Oatland Place,53.810296366972338,-1.541686918124078
Stile Hill Way,53.792006346691295,-1.432500561148607
Stile Hill Way,53.791726728140006,-1.432291817246272
Yew Tree Lane,53.791056501464858,-1.435017992620460
School Lane,53.790881451416254,-1.437934794566992
Laurel Hill Way,53.791370488351177,-1.440645409519050
Laurel Hill Avenue,53.791884947462307,-1.443036975135640
Darnley Lane,53.793551866604169,-1.443925725977309
Chantry Garth,53.795236946385238,-1.442916682269977
High Bank Approach,53.796059496448834,-1.441979727943091
High Bank Approach,53.796740783166094,-1.441591149835526
Detroit Drive,53.797297229337382,-1.439488680619032
Austhorpe Lane,53.796441529441061,-1.437177325057974
Colton Retail Park,53.795050440070568,-1.433795410503666
Wilfred Avenue,53.797642457399839,-1.459888502774874
Field End Road,53.797108621875438,-1.465117849650046
Halton Tesco,53.796264419405993,-1.469318639082166
Halton Lidl,53.795787334024020,-1.471191943532004
Chapel St Club,53.796744236247889,-1.468067699821986
Field End Road,53.797293635818818,-1.464280501722991
Temple Moor School,53.797499557225876,-1.462091699348489
The Crescent,53.797802743193415,-1.457563611469634
Queensway,53.797312845894467,-1.454579127617924
Kingsway,53.797224217197062,-1.452879925685164
Whitkirk Church,53.797968142552328,-1.448497837435752
Garland Drive,53.797779713079805,-1.442731180648081
Temple Gate,53.797068360742308,-1.456161189995989
Templegate Walk,53.794716576350723,-1.458833058315588
Templegate Walk,53.794078596548005,-1.458871627847869
Temple Gate Drive,53.792263239692460,-1.464936586093399
Temple Gate Drive,53.792044499730999,-1.466275193433735
New Temple Gate,53.791447615747991,-1.469500844389408
New Temple Gate,53.791242042043947,-1.469761489021104
Irwin Approach,53.794901040193153,-1.471992491100127
Irwin Approach,53.794450324904602,-1.471694535224904
Temple Newsam View,53.792695874788166,-1.471291528978642
Temple Newsam View,53.792416390103348,-1.471097702372682
Skyliner Roundabout,53.798305743401905,-1.441813283630571
Spen Ln Queenswood Drive,53.830095797731069,-1.604554399770187
West Parade,53.835774046921152,-1.601188315403165
Butcher Hill,53.834000176785168,-1.602922181007206
Butcher Hill,53.833605421974724,-1.603138639097128
Ghyll Road,53.828136933518621,-1.601990062637293
Beckett Park,53.829985039667733,-1.603674221959014
West Parade,53.835854027207738,-1.600914035603960
Woodbridge Crescent,53.824712319389519,-1.601931350339964
Woodbridge Crescent,53.824657435782953,-1.601643231232389
Lea Farm Drive,53.825930552855120,-1.608877739122754
Old Oak Drive,53.832663231680002,-1.606338368626489
Butcher Hill Abbey Grange School,53.833981405066872,-1.610914874903811
Butcher Hill Fillingfir Walk,53.834057706603986,-1.609501040253532
Broadway,53.827623906371052,-1.615561910947193
Vesper Road Surgery,53.826740613555501,-1.611999807815021
Broadway,53.827724326920333,-1.616047156294266
Woodbridge Place,53.822175241931383,-1.598491918345587
Hawkswood Crescent,53.831514365708479,-1.615146461780453
Butcher Hill,53.833112568061189,-1.614630399623127
Butcher Hill Lea Farm Road,53.833391040399135,-1.614582261042285
Butcher Hill Old Oak Drive,53.833003467947066,-1.605940122181007
Eden Drive,53.817055611084747,-1.588911135412662
Headingley Stadium,53.818545268360026,-1.583018296692107
North Lane Library,53.821118764324062,-1.578709109885054
North Lane Library,53.821037075358973,-1.578482075319875
Eden Drive,53.817472681499453,-1.589970281803694
Latchmere Road,53.835887384204476,-1.608313970721873
Fillingfir Walk,53.834539429124845,-1.608387319940948
Eden Drive,53.816780992020988,-1.590083349991429
Langdale Avenue,53.817417328153582,-1.586933038584680
Latchmere Road,53.836061862715596,-1.609452017512647
Old Farm Cross,53.836490840142858,-1.605952993543265
Spen Road West Parade,53.835124567520687,-1.597790730926535
Moor Grange Drive Moorgrange Rise,53.836676041353016,-1.602152287317765
Spen Road West Parade,53.835503627067332,-1.598258160402908
New Road Side,53.833756959533410,-1.648903965652173
Outwood Lane,53.835003612705556,-1.618563819825267
Outwood Lane,53.835184380009530,-1.618881280274110
Cottingley Drive Cottingley Fold,53.771850534881004,-1.585058839589526
Cottingley Drive Cottingley Fold,53.771669624821762,-1.584726829781518
Cottingley Dr Dulverton Gardens,53.770907611057083,-1.587905319309637
Cottingley Drive Dulverton Gardens,53.771132148790919,-1.587857605010694
Cottingley Drive Dulverton Place,53.769289604955162,-1.587860468703006
Cottingley Drive Dulverton Place,53.769479129588291,-1.588086187720472
Cottingley Drive Cottingley Station,53.767821468594754,-1.586964577670074
Cottingley Crescent,53.769235334130514,-1.579986980371365
Millshaw,53.767133465291209,-1.577808184336409
Headingley Arndale,53.822169522562916,-1.578470716521919
St Michaels Church,53.819300466877621,-1.575385623774697
Headingley Arndale,53.822215793872175,-1.578850018816640
Richmond Avenue,53.817536328267870,-1.572153006937177
St Michaels Church,53.819247346551954,-1.575614004231130
North Grange Road,53.816732200876501,-1.568470343263279
Richmond Avenue,53.817548614786595,-1.573079409205520
North Hill Road,53.816486637056691,-1.567667869034045
North Grange Road,53.816734492538096,-1.569108244322777
Cumberland Road,53.815946651674487,-1.564985076775820
North Hill Road,53.816256465181695,-1.566151385611802
Hyde Prk Corner,53.814034154979204,-1.560585245814500
Cumberland Road,53.815875300669795,-1.565137698936937
Hyde Park Corner,53.813990550495028,-1.560950206271831
Clarendon Road,53.811398150440638,-1.557453953330263
Hyde Prk Corner,53.814153161597709,-1.561176324118635
Leeds University,53.809880026958318,-1.555252747080543
Clarendon Road,53.810647183040565,-1.556110261165116
Leeds University,53.808359769350936,-1.552489852535029
Leeds University,53.809342592663043,-1.553329808167335
Leeds University,53.808287471634792,-1.552384322603259
Leeds University,53.808116422798342,-1.552310215768588
Leeds University,53.807007764918154,-1.551471650652065
Leeds University,53.807160441736819,-1.551439651488006
Blackman Lane,53.806307808109217,-1.549368413065231
Fenton Street,53.805561432766460,-1.549270119496089
Woodhouse Ln Car Pk,53.805050006459069,-1.547119406890052
Lodge Street,53.806013266435599,-1.549918223164607
Leeds University,53.808445791313531,-1.551456309689600
Carlton Hill Carlton Grove,53.808187629023962,-1.542590670894541
Hyde Park Road,53.809810050519467,-1.565595277599112
Moorland Road,53.808065006709803,-1.560283179264458
Moorland Road,53.808294898654395,-1.559248151769517
Woodhouse Lane,53.810345361035218,-1.557130935305828
Spring Road,53.816554957663414,-1.576749957290057
Spring Road,53.817422480630135,-1.578077846830537
Victoria Road Jct,53.814179153666814,-1.575908176972870
Victoria Road Jct,53.814329850073996,-1.575314332154632
Buckingham Road,53.814423828671330,-1.571410107182323
Buckingham Road,53.814695707341294,-1.569524030249419
Hyde Park Picture House,53.812447752692627,-1.569258494232054
Royal Park Road,53.810478632930661,-1.569050873041663
Royal Park Road,53.810777460401603,-1.569670457462055
Victoria Road,53.813992182021913,-1.576411256861666
Burley Medical Centre,53.807875860419458,-1.580254060267645
Victoria Road,53.813785304459159,-1.576367778655255
Cardigan Road,53.806295016689397,-1.575441042265134
Headingley Stadium,53.818526805284428,-1.580299591382621
Rosebank School,53.803515771891995,-1.567345714503838
Rosebank School,53.803164102065942,-1.567030473310891
Talbot View,53.811656632631113,-1.587111136263870
Kirkstall Lane,53.816360046127144,-1.598501900909941
Harold Grove,53.809042993049125,-1.574775486251576
Burley Hill Drive,53.814107679392393,-1.591582627228947
Mayville Avenue,53.811004674854324,-1.575423855722049
Carberry Road,53.807147181615264,-1.574961696268167
Harold Grove,53.809457018510337,-1.574938345350458
Eden Road,53.815070262427227,-1.594489383349399
St Andrews Street,53.800632579164585,-1.562926796678744
Morris Avenue,53.822268062518262,-1.604795156613347
Kepstorn Rise,53.823827328737316,-1.606117320568198
Norman Mount,53.819517528470833,-1.602010931710565
Morris Avenue,53.822295575605921,-1.604961995264509
Kirkstall Hlth Ctr,53.816918705625241,-1.598921849139680
Burton Road,53.777115280588717,-1.544779677860402
Hunslet Fire Stn,53.772318103327443,-1.547805392197947
Benson Street,53.804924721794727,-1.535504668102722
Southbank B,53.791983214948793,-1.542857957747377
Vesper Gate Drive,53.823079456863695,-1.613841333627610
Vesper Walk,53.823525120884789,-1.615477878405867
Kirkstall Abbey,53.821653698738672,-1.606563024750672
Vesper Gate Drive,53.823022644312630,-1.612945590832523
Abbey Road,53.818946136918243,-1.603170741264965
Cardigan Fields,53.805903390642818,-1.581655563159194
Abbey Road,53.818802534420549,-1.603232854700932
Kirkstall Lights,53.816543603795708,-1.602342861722818
Kirkstall Abbey,53.821683943413639,-1.607565311217151
Gilbert Mount,53.811773670113503,-1.597755985012430
Burley Wood Mount,53.810558535788999,-1.594563273588513
Burley Wood Mount,53.810632846278338,-1.595276320582456
Woodside View,53.809452512630458,-1.591764522730921
Gilbert Mount,53.812253221353409,-1.598708180433998
Vesper Road,53.824989151432312,-1.620811938681179
Abbeydale Way,53.824416526746745,-1.618796645400928
Abbeydale Way,53.824091037971591,-1.618191945418780
Hawksworth Road,53.829131064263052,-1.628948465569425
Regent Avenue,53.831246369077341,-1.635843006296513
Oliver Hill,53.830454996578666,-1.632750369394579
Hawksworth Road,53.829147818249254,-1.628553296048086
Oliver Hill,53.830435207216560,-1.632157991924913
Sunnybank Avenue,53.831989386455639,-1.640820250783947
Regent Avenue,53.831484923814969,-1.637451500388592
Rose Terrace,53.832324697310519,-1.644767896876006
Sunnybank Avenue,53.832152800586037,-1.641365845592844
New Road Side,53.833240429355378,-1.647464794473070
Rose Terrace,53.832290722433278,-1.645436731856139
Southbank C,53.792297552340230,-1.542793822468810
Southbank A,53.792162274422417,-1.542673854150039
Weetwood Lane Otley Rd,53.827998088018511,-1.582286392599846
Weetwood Lane Otley Rd,53.827711380907658,-1.582547517927329
Weetwood Avenue,53.831567090804022,-1.582509204649637
Weetwood Avenue,53.830901105024402,-1.582257528478692
Weetwood Lane Weetwood Ct,53.832988462205300,-1.582874942374394
Weetwood Lane Weetwood Ct,53.833151242840614,-1.583162023612657
West Street,53.798733506675816,-1.557313942792794
Washington Street,53.801075601148682,-1.568615826141784
Kirkstall Fire Stn,53.799444993398119,-1.565079861636746
Wellington H,53.796635545444872,-1.553874658172385
Wellington I,53.796438940755301,-1.551766534899293
Kirkstall Fire Stn,53.799404138146088,-1.563729048724189
Wellington G,53.797062412788385,-1.557498528141973
Willow Road,53.804071075623888,-1.574339872290723
ITV Yorkshire,53.803150502160065,-1.573271142819425
Gildersome Lane Upper Moor Side,53.768398603786125,-1.637615566450986
Gildersome Lane Upper Moor Side,53.768637970782741,-1.636521174650597
Gildersome Lane Woodcock Inn,53.769514817155383,-1.635208848959023
Hunslet Cemetery,53.767957342291325,-1.524170154498634
Woodhouse Hill Road,53.770525050829392,-1.523443221186809
Leasowe Road,53.771670283983227,-1.522125427721193
Pepper Road,53.773350859421733,-1.522076004019769
Pepper Road,53.773666092980342,-1.522239329827680
Midland Close,53.776247609880066,-1.522725947917377
Midland Close,53.776114544495570,-1.523167503882037
Midland Road,53.776880558587465,-1.530518368129767
Midland Road,53.776645096549508,-1.530065767640267
Playfair Road,53.773832307033025,-1.530188207833923
Moor Rd Carr Moor Street,53.773068635975704,-1.537206626232904
Tunstall Road,53.776222097811292,-1.543894067528255
Beza Street Tulip St,53.775889367523313,-1.536811439436996
Church St Balm Road,53.777801454368365,-1.531570321270828
West Grange Drive,53.769212632893918,-1.530239758546051
East Grange Road,53.767449201669479,-1.529789134564524
East Grange Drive East Grange View,53.768602240733941,-1.528152925723123
East Grange Drive East Grange View,53.768615615678733,-1.526984583226207
Thwaite Gate,53.776791427723452,-1.517120469965709
Whitehouse Street,53.784796179010066,-1.532084368043303
LCC Printworks,53.788740115158078,-1.536244975560126
LCC Printworks,53.788648418938521,-1.535775451109217
Thwaite Gate,53.777777790239817,-1.518778364462446
Crown Point E,53.791641113711535,-1.538019372694374
Leeds Dock B,53.791191636510433,-1.535671490474640
Raincliffe Road,53.797747602897893,-1.513904257211078
Halton Dial,53.801690325538047,-1.489368041142642
Woodpecker Junction,53.798231426761106,-1.527015934455535
Upper Accommodation Rd Hampton Street,53.795097995535812,-1.523331851649397
Upper Accommodation Rd Hampton Street,53.794802849817259,-1.523699535131323
Upper Accommodation Rd Dial Street,53.792642858994846,-1.522980171887013
Dial Street Easy Rd,53.791234862449343,-1.521508546739480
Easy Rd Cross Green Lane,53.790268428223421,-1.522582079091076
Pontefract Lane Cross Green Approach,53.788951064536093,-1.510165692262612
Pontefract Ln Newmarket Lane,53.786938854360535,-1.503875088983559
Knowsthorpe Gate,53.784968853709607,-1.501318184921767
Cross Green Way,53.783860685154828,-1.502849002914887
Knowsthorpe Gate Cross Green Way,53.783662754623521,-1.504976090041556
Cross Green Way,53.783688144016196,-1.508967285322612
Cross Green Way,53.785338501167161,-1.512529886872005
Cross Green Ln Pontefract Lane,53.790332555934462,-1.513929222326448
Cross Green Ln Glencoe View,53.789109286867912,-1.515931769631808
Cross Green Crescent,53.788226256034378,-1.519857960079959
Cross Green Lane Cavalier Approach,53.788809768951722,-1.521930772110222
Lupton Ave Torre Lane,53.800476422295667,-1.508619452443972
East End Park Parade,53.794334162705454,-1.509981562176239
East End Park Parade,53.793804326286747,-1.510093997480838
East Park Parade East Park Road,53.792652653308181,-1.512004912214977
East Park Road Garton Rd,53.792351944580751,-1.513207613249171
East Park Rd Glensdale Grove,53.793497522021411,-1.516442944380845
East Park Rd Glensdale Grove,53.793605129012953,-1.516380985951257
Pontefract Ln Pontefract Street,53.794558900338807,-1.518874835600907
Lavender Walk Hall Place,53.795350176105423,-1.521203656246056
Shaftesbury Med Ctr,53.798320790016810,-1.498123465111227
Rookwood Street,53.796571694985687,-1.498979315876709
Rookwood Street,53.796139275115628,-1.498741566377499
Neville Hill,53.794231299190962,-1.498141899448067
Neville Hill,53.794023504421709,-1.497886309824783
Rookwood Avenue,53.800754271600276,-1.497578202896529
Rookwood Avenue,53.800934595728819,-1.497712695620784
Halton Moor Avenue Neville Pl,53.792668418567139,-1.491982272140077
Meadowfield School,53.794622504760916,-1.490729031190374
Neville Road,53.796295246937660,-1.488841471516278
Corpus Christi Coll,53.795669361106519,-1.485402963214927
Corpus Christi Coll,53.795631587071689,-1.484978354293582
Temple Academy,53.794766792242093,-1.482438569180116
Neville Rd Ullswater Crescent,53.794710704865544,-1.481938293604505
Cartmell Drive,53.793530703419037,-1.485520209793908
Maryfield Crescent,53.808446871252066,-1.462057934158885
Poole Road,53.808418268624799,-1.457699990444605
Manston Park,53.807235314692960,-1.444701424485096
Manston Park,53.807323573259552,-1.444350995321255
Pendas Way,53.807314286004591,-1.440418109168099
Ethel Jackson Rd,53.807967438736014,-1.437858234082497
Euston Road,53.807711369263977,-1.435006782187363
Euston Road,53.807592958408542,-1.434674293264179
Sandleas Way,53.807475936146709,-1.432732132163228
Sandleas Way,53.807507719609355,-1.431850947743472
Sandleas Way,53.808752664591964,-1.430922968598277
Sandleas Way,53.808771359599277,-1.431074574497533
Smeaton Approach Spur Drive,53.811155869127305,-1.435446460583152
Smeaton Approach Spur Drive,53.811148238654781,-1.435735111386006
Smeaton Approach Rockingham Road,53.811467895655746,-1.431098824635906
Smeaton Approach Smeaton Academy,53.813209515790788,-1.436375688912256
Smeaton Approach Smeaton Academy,53.814241722303237,-1.436073277225886
Smeaton Approach Leeds Rd,53.816322106229194,-1.435042912677305
Smeaton Approach Leeds Rd,53.816437799409009,-1.434798338735393
Maryfield Crescent,53.808173566437645,-1.461241405845285
Inglewood Drive,53.809768448341458,-1.462132139701900
Wykebeck Valley Rd,53.802635395016395,-1.485469553231854
Inglewood Drive,53.811051055413280,-1.459533989176605
York Rd Barwick Road,53.814731725225698,-1.454580925118115
Whitkirk Lane,53.798869484597709,-1.441274419984628
Austhorpe Road Croftdale Grove,53.806489610617213,-1.442828326191298
Austhorpe Road Croftdale Grove,53.806848899777329,-1.442778008920631
Kingswear Cres Kennerleigh Ave,53.803940002311421,-1.441541092908678
Kingswear Cres Kingswear Parade,53.802624575154979,-1.444731950629587
Kingswear Cres Kingswear Parade,53.802308817094541,-1.444478000027514
Top Moor Side,53.783721154455733,-1.559126148551910
Heath Mount,53.776561429962975,-1.572584762361779
Cemetery Road Fairfax Rd,53.778789462672471,-1.557432684615861
Cemetery Rd Beeston Road,53.778282003269432,-1.556315085180566
Cemetery Rd Tempest Rd,53.777590229695228,-1.556398249911125
Beeston Co-Op,53.772744911081517,-1.566023344011032
Old Lane Moorhouse Ave,53.769476314209015,-1.564388156291959
Elland Rd Fairway Court,53.779987820139240,-1.563141214475139
Fairway Court,53.779936929810148,-1.563976389311040
Elland Road Ind Est,53.773402514365202,-1.579050198384401
Elland Road Ind Est,53.773141709908252,-1.579007287330604
Cemetery Road Fairfax Rd,53.779186488713705,-1.557853413427738
Cross Flatts Drive,53.774568056165535,-1.563151939747886
Beeston Terminus,53.772052723617989,-1.570991901762266
Old Lane Grovehall Rd,53.767236051748967,-1.563774158225785
Back Lane The Woodcock PH,53.770198997634310,-1.635567046051215
Back Lane The Woodcock PH,53.770090314075034,-1.635294894228548
Back Lane,53.774316797365458,-1.635986603580621
Butt Lane Tong Approach,53.792303508939853,-1.621987011924173
Butt Lane Water Ln,53.793983934396927,-1.621880830615797
Butt Lane Water Ln,53.793822202443707,-1.621897464576381
Butt Ln Stonecliffe Drive,53.789581218146360,-1.622330224266794
Butt Ln Stonecliffe Drive,53.789194027186582,-1.622106018967559
Hall Ln Chapel Lane,53.787646456096574,-1.621588681690374
Hall Ln Chapel Lane,53.787519238483434,-1.621149660898147
Farnley Academy,53.785319687254201,-1.619105348766304
Whincover Road,53.785066761400501,-1.615890068702059
Bawn Gardens,53.787611294495399,-1.613377628602890
Butterbowl Grove,53.787632011396610,-1.617035370107150
Roker Lane Tong Ln,53.780309457427244,-1.641170324812663
Roker Lane Low Farm,53.782114254679975,-1.643583120470918
Tong Rd Troydale Lane,53.782442968020682,-1.636310910850433
Troydale Lane,53.789591968580105,-1.643474250085303
Troydale Lane,53.789627333395579,-1.643276625449853
Troydale Lane Acres Hall Ave,53.789748368359703,-1.647738192694286
Troydale Lane Acres Hall Ave,53.789783071327257,-1.647312892974596
Cottingley Springs,53.767655564454898,-1.598996765587879
Gelderd Rd Cemetery,53.769396876374898,-1.595612093568159
Gelderd Rd Cemetery,53.769512028874161,-1.595110324377328
Hill Top,53.772598500475958,-1.590862624036658
Hill Top,53.772365025543152,-1.590925583483360
City Park Ind Est,53.774754841577732,-1.588004221534115
City Park Ind Est,53.774977867226177,-1.587516483983398
Wheatsheaf Junction,53.778529845696944,-1.582807816264010
Gelderd Business Pk,53.781321568228535,-1.579213811500204
Lowfields Road,53.782681464057717,-1.577424578959248
Bracken Court,53.786028157116157,-1.573232313429539
Bracken Court,53.785973420859534,-1.573005205075654
Domestic Rd Copley Hill,53.789266629805780,-1.568979771879545
Stainbeck Lane Miles Hill Crescent,53.828813846986108,-1.549385324904913
Burley Place Viaduct Rd,53.803764294437606,-1.576544655941783
Moorfield Road,53.800756808112070,-1.598483855326207
Wellington Bridge,53.796934651952363,-1.561872153170253
Rossefield Approach,53.805721776787216,-1.627469547779415
Greenhill Mount,53.804555909549990,-1.616866085602449
Station Mount,53.806580894459302,-1.638000309512740
Railsfield Mount,53.805871249844529,-1.632221040955560
Broadlea Close,53.817068772622257,-1.614549671522401
Broadlea Terrace,53.817295644256078,-1.618041028132514
Broadlea Terrace,53.817504148786810,-1.618601123922428
Broadlea Crescent,53.815975607610831,-1.618417543640599
Broadlea Crescent,53.815730957876305,-1.617797044525218
Broadlea Place,53.814483376249179,-1.615530211291798
Broadlea Place,53.814546971174444,-1.615742259757651
Green View,53.829692518775893,-1.568367617705367
Viaduct Road Burley Place,53.803717533353030,-1.576028871788910
Armley Park Gates,53.799151968701644,-1.591682317667033
Armley Prison,53.797473778636125,-1.574315548369414
Branch Road,53.798266612732782,-1.587728411818723
Pickering Street,53.799017005523645,-1.581207863455675
Railsfield Mount,53.805867754997728,-1.631082217698989
Rossefield Approach,53.805608230178429,-1.628533477436631
Headrow A,53.799445525750869,-1.545813339024765
Headrow J,53.799580857869685,-1.545948519990785
Headrow I,53.799448988420757,-1.544355786592610
Ganners Way Ganners Walk,53.819322458482368,-1.630979325854019
St Catherine's Dr Ganners Hill,53.819582431328314,-1.627847970048010
Broadlea Mount,53.814946963981797,-1.611561901134861
New Farnley Cem,53.771154976773644,-1.630749189042416
New Farnley Cem,53.771494503958593,-1.630093802216587
Walsh Lane,53.772125788522857,-1.627873065555183
Wolley Avenue,53.773954322098732,-1.623380809969654
Lawns Lane,53.775213189099716,-1.620698984995158
Civic M,53.799652994970437,-1.548392127019716
Civic L,53.799642463991262,-1.547982312162816
Calverley Lane,53.814660450838311,-1.643793267653543
Calverley Lane,53.813792057764069,-1.644954880987404
Pollard Lane,53.819831918272683,-1.632979902059818
Pollard Lane,53.819386934225960,-1.634426799940522
Shirley Drive,53.818905659132653,-1.635767655452222
Wood Lane,53.816278094862362,-1.628894852260250
Broad Lane Upper Town St,53.815470034380880,-1.635038013738896
Newlay Lane,53.815738280641909,-1.634580036408727
Broad Lane Mill Ln,53.810518106367262,-1.647214926159998
Broadlea Steps,53.817268104021707,-1.612254327606326
Broadlea Steps,53.817104410242344,-1.611663474802461
Broadlea Hill,53.819078630718764,-1.616278033018635
Wellington Grove,53.816327169201593,-1.624444188275901
Wood Lane,53.816363597282390,-1.627481565705291
Cockshott Lane,53.804384511837718,-1.611082470355727
Cockshott Lane,53.804233342859263,-1.611584944918084
Cockshott Lane Wyther Park Rd,53.804972772728476,-1.609558589427713
Gotts Park Avenue,53.804508281500198,-1.604946893196074
Gotts Park Avenue,53.804273750581601,-1.604690965741247
Gotts Park View,53.806498711683844,-1.606188545366504
Armley Ridge Road Raynville Rd,53.811635577475727,-1.607628737708784
Wyther Lane Wyther Dri,53.813306201185341,-1.607279022195923
Wyther Lane Wyther Dri,53.814168376197031,-1.607073527353584
Kirkstall Bridge Shopping Park,53.815819877084707,-1.606374615515715
Raynville Rd Lancastre Grove,53.811333455909349,-1.611458606879580
Raynville Rd Landseer Green,53.813568836491214,-1.624757391870414
Raynville Rd Landseer Green,53.813035898294231,-1.623911659150139
Waterloo Ln Waterloo Way,53.812696033636740,-1.627331816864727
Waterloo Ln Waterloo Way,53.813348218750910,-1.626065479527800
Waterloo Lane Landseer Rd,53.814055265811724,-1.625102366741167
Rock Lane,53.817247767866128,-1.640369046869132
Ross Terrace,53.817487731173721,-1.645500846241848
Ross Terrace,53.817333727680392,-1.645092045872162
Langley Avenue,53.817657018662196,-1.648051165827173
Langley Avenue,53.817663866834273,-1.647322037760875
Mill Lane,53.812289052974258,-1.647321563065931
Mill Lane,53.812450788091553,-1.647305019307551
Wellington J,53.797071898019247,-1.550378265371301
Rodley Lane,53.816655213213437,-1.640586756789141
Rodley Lane,53.816234152247560,-1.641046010552739
Whitecote Lane,53.818057523099228,-1.637658455663945
Whitecote Lane,53.818395935486947,-1.636622669955173
Raynville Road Raynville Dene,53.811979887979732,-1.608475992904201
Bramley Fall Park,53.820070684673723,-1.628785417884814
Broad Ln Calverley Drive,53.813802360881958,-1.639365764494782
Broad Ln Calverley Drive,53.813050942442985,-1.640556820178571
Broad Lane Fairfield Hill,53.811594317589957,-1.643378827620237
Broad Lane Fairfield Hill,53.811057800420045,-1.644309759997639
Broad Lane Mill Ln,53.810741281952808,-1.646696713645574
Broadlea Hill,53.819234428545130,-1.617218363233719
St Benedict's Drive,53.820507775657191,-1.621961241498137
St Benedict's Drive,53.820466323746615,-1.623070484326666
Lincroft Crescent,53.815765873942134,-1.620302796882340
Wellington Grove,53.816443534482467,-1.624291263218426
Armley Ridge Road,53.802273112128191,-1.603085143464540
Cockshott Lane Wyther Park Rd,53.805187687825388,-1.609313642289044
Gotts Park View,53.806164769919079,-1.605766497305598
Armley Ridge Road Raynville Cres,53.808435003508173,-1.607370077456266
Armley Ridge Road Raynville Cres,53.809090312597292,-1.607120983863933
Armley Ridge Road Raynville Rd,53.811663235457054,-1.607841095131482
Broad Lane Kirkstall Mount,53.814183204047517,-1.611629709241655
Broad Lane Kirkstall Mount,53.814159822804008,-1.612738629167314
Broad Ln Broadlea Crescent,53.814167004638371,-1.614971158824437
Broad Ln Broadlea Crescent,53.814168465213889,-1.615426777240591
Lincroft Crescent,53.815521907415757,-1.619894918725716
Raynville Road Raynville Dene,53.811872481030399,-1.608613675249800
Outgang Lane,53.812059020728782,-1.621946092917236
Outgang Lane,53.811588689196945,-1.621008741115092
Raynville Rd Landseer Avenue,53.811109763934397,-1.617368269743203
Raynville Rd Landseer Avenue,53.811093433269733,-1.617884763224604
Raynville Rd Lancastre Grove,53.811041571092183,-1.612919217685060
Waterloo Lane Broad Ln,53.815551274352579,-1.623509450244081
Waterloo Lane Broad Ln,53.816090443126839,-1.623474244514083
Whitecote Hill,53.815496336029149,-1.637786848774751
Leeds & Bradford Rd,53.816393567592726,-1.640254846411013
Leeds & Bradford Rd,53.816231378378056,-1.640119538232772
Rock Lane,53.817083528543506,-1.639550258519020
Canal Rd Forge Lane,53.801176227058569,-1.581808867722356
Canal Rd Forge Lane,53.801463198799368,-1.581623816351717
Bell Lane Bellmount Close,53.815224367514205,-1.628205501693797
Bell Lane Bellmount Close,53.815296645690232,-1.628326367473344
Bell Lane Park Rd,53.814662271844235,-1.629547007865715
Newlay Ln Hillcourt Drive,53.817462446997830,-1.634079003170553
Corn Exchange I,53.795896918214815,-1.541525024859797
Trinity Q,53.795880652322381,-1.544333716920731
Lawns Lane,53.775624707338494,-1.620088325130950
Coach Road,53.776667115556094,-1.617195823284774
Coach Road,53.776380957800534,-1.617653647780001
Whitehall Ind Est,53.778322026847491,-1.611945474307233
Whitehall Ind Est,53.778926799569504,-1.609967148795757
Branch Road,53.780319447008864,-1.604324131355685
Whitehall Drive,53.781222213056928,-1.600096762646582
Whitehall Drive,53.781180331380355,-1.598321589534949
Wortley Ringways,53.781464525840562,-1.594631127506336
Royds Lane,53.781839983659197,-1.591379833912686
Dixon Lane,53.782271112751786,-1.586048794717151
Dragon Bridge,53.784470306390730,-1.580047417684121
Dragon Bridge,53.784594221223685,-1.579499806798629
Copleyhill Trading Estate,53.786888454779238,-1.575044935563095
Copleyhill Trading Estate,53.787226705872484,-1.574115660446842
Low Moorside Crt Lawns Lane,53.775920360941569,-1.622634874169770
Low Moorside Crt Lawns Lane,53.775991547250044,-1.622406627021919
Fawcett Way,53.783794178336152,-1.600512449607406
Fawcett Way,53.783651535787456,-1.600862867995001
Fawcett Avenue,53.783727254246394,-1.596627839364456
Western Grove,53.785468492055074,-1.593241772839313
Green Top,53.786631899490253,-1.591758281250611
Green Top,53.787241205885856,-1.591205961455741
Five Lane Ends,53.787839708559780,-1.590122492678974
Roseneath Place,53.788911263921222,-1.582871853551044
Roseneath Place,53.789026943186919,-1.582536776167101
Tavistock Park,53.789438660647775,-1.579466571193085
Tavistock Park,53.789322086150968,-1.579543630193824
Clyde Gardens,53.791129776850411,-1.572224261342111
Copley Hill,53.790816949027096,-1.575248125477680
Third Avenue,53.791625107538060,-1.577577625285149
Third Avenue,53.791835507487726,-1.578622910551282
Fearnley Place,53.792419119471354,-1.581015487441045
Fearnley Place,53.792521266692638,-1.581955625444799
Amberley Road,53.792980613093299,-1.584820097763112
Amberley Road,53.793056657842023,-1.586018576398267
Thornhill Road,53.793457095506696,-1.590082945144396
Thornhill Road,53.793497033359891,-1.591251436889212
Carr Crofts,53.793594644743912,-1.593527534329109
Carr Crofts,53.793212996674704,-1.594958157438911
Whingate Junction,53.793350627767765,-1.595791744216901
Farrow Hill,53.793499563500198,-1.610940217859079
Scotts Square,53.793115416727773,-1.608894453730929
Scotts Square,53.793122374557996,-1.608272003879167
Whingate School,53.793313740304662,-1.603594721478670
Albany Street,53.793547655627620,-1.600951148152365
Albany Street,53.793359972582302,-1.601271712923569
Gamble Hill Drive,53.797842926725814,-1.625747871573743
Farrow Bank,53.794314394402676,-1.615562751275150
Poplar Rise,53.803654769296088,-1.618954492975913
Poplar Rise,53.803573927768383,-1.618970409335216
Armley Cemetery,53.803424418207243,-1.614371059583125
Armley Cemetery,53.802764648785889,-1.613238338781589
St Mary's Hospital,53.801537609952590,-1.611792038823750
St Mary's Hospital,53.800887493213537,-1.610871880761242
Hill End Road,53.799281853022727,-1.609095217990947
Hill End Road,53.799307925854158,-1.608821693204810
Whingate,53.798039158193504,-1.605630111062148
Whingate,53.797594461478589,-1.604328650420376
Whingate Moor Business Park,53.795044260322356,-1.599631400722392
Whingate Junction,53.793662841541078,-1.597762187037319
Whingate Junction,53.792965228283876,-1.596114228709377
Upper Wortley Rd Thornhill Road,53.791272926439966,-1.592699915002155
Upper Wortley Rd Thornhill Road,53.791136202839375,-1.592139600131100
Five Lane Ends,53.788645854658832,-1.589310178300124
Five Lane Ends,53.788601279547279,-1.589416862908166
Dixon Lane,53.785256437160427,-1.589039711444162
Dixon Lane,53.785337690653570,-1.589145159229537
Dixon Lane Kellett Crescent,53.783234161944300,-1.586433912902103
Bramley Park,53.815011289843305,-1.634920492140654
Bramley Park,53.814768112474461,-1.634755536669018
Westover Road,53.813880871599523,-1.632652166699458
Westover Road,53.813662886068379,-1.631909882213337
Waterloo Lane,53.812412003584882,-1.628488552959885
Waterloo Lane,53.812440000403427,-1.628822421644751
Bramley Centre A,53.811148395949303,-1.626783629411791
Bramley Centre B,53.810985719073443,-1.626496528605010
Bramley Centre C,53.810832643860067,-1.626406769345663
Bramley Centre,53.810563247812382,-1.626485095138385
Bramley Centre E,53.810086755530200,-1.626443769297420
Aston Road,53.808436028185319,-1.624545042530203
Aston Road,53.807571778677385,-1.624097199142349
Henconner Lane Bus Depot,53.803129062770488,-1.620401710831394
Henconner Lane Bus Depot,53.803146125534269,-1.620113065761019
Henconner Ln Poplar Way,53.801096004873095,-1.619843105897070
Kingswear Cres Lulworth Cres,53.799810628544130,-1.440715339913643
Hollyshaw Ln Hollyshaw Crescent,53.800904352234056,-1.449825802557455
Dunhill Rise,53.800051101695580,-1.482282439280181
Carden Avenue,53.798330596608587,-1.477263165984916
Portage Avenue,53.796598241258174,-1.473686690048549
Carden Avenue,53.798525214335825,-1.478611959199798
Portage Avenue,53.796700099109621,-1.474368583075615
Halton Library,53.796817549656296,-1.468385585135351
Sycamore Avenue,53.799495588390307,-1.464252451164356
Temple Walk,53.800954555280583,-1.458889429807021
Clapham Dene Road,53.802852921696790,-1.457316258740872
Clapham Dene Road,53.802960566226105,-1.457269318097269
Greenway,53.803820103029651,-1.452581523456635
Pendas Drive,53.807747951482419,-1.440898273361181
Pendas Drive,53.807711435392108,-1.440777274947477
Pendas Grove,53.810346038091190,-1.439086901586030
Pendas Grove,53.810795271393062,-1.439050533747447
Kelmscott Green,53.813468217517489,-1.437875791260941
Stanks Cross,53.816612880790025,-1.439550055939564
Baildon Path,53.827438548715080,-1.454081725190285
Whinmoor Way,53.821995031790635,-1.443048076094547
Whinmoor Way,53.821496309669207,-1.444042068479883
Stanks Lane North,53.820204705494348,-1.446565510875879
Stanks Drive Farndale Garth,53.823524115643032,-1.451094344550232
Farndale Garth,53.823968692703126,-1.450040331256670
Sherburn Approach,53.824406648642707,-1.453437502443838
Seacroft Ring Road,53.824044999647036,-1.454946155975882
Mill Green Gardens,53.821859759414259,-1.450751512496146
Mill Green Place,53.820697354222503,-1.452073063330066
Swarcliffe Approach,53.818864248616194,-1.452172912856860
Southwood Gate,53.816560131943191,-1.449514548710674
Eastwood Lane,53.815609848147581,-1.446139992171292
Manston Avenue,53.812783333665259,-1.447164415158009
Manston Avenue,53.812532033025271,-1.447243656659993
Manston Gardens,53.810521905007072,-1.447938296581873
Manston Gardens,53.810025215182307,-1.447428484145717
Barwick Road Southwood Gate,53.815236797546241,-1.451020327511274
Seacroft The Green,53.819173112340295,-1.458837138159825
Stocks Approach,53.816477130169872,-1.456942893847317
Stocks Approach,53.816412911407234,-1.456655139494768
Stocks Rise,53.815467226619205,-1.456226904846675
York Road,53.816724187728269,-1.457911781572825
York Road,53.816796568088030,-1.458017169398552
Foundry Mill Street,53.816741803775429,-1.459825337846380
Stocks Approach Hansby Avenue,53.816928473887728,-1.455387801204783
Henconner Ln Poplar Way,53.801132532824980,-1.620024971893102
Henconner Lane Gamble Hill Dr,53.798267503904945,-1.620703677947144
Henconner Lane Gamble Hill Dr,53.798555495922273,-1.620822537722970
Gamble Hill,53.797946532667602,-1.621526392670292
Queensthorpe Ave,53.799275987112480,-1.624140975471398
Community Centre,53.800477252190639,-1.623143360656317
Gamble Hill Drive Gamble Hill Croft,53.801089277430172,-1.623411170855469
Gamble Hill Rise,53.800973646604128,-1.626676541024615
Gamble Hill Rise,53.800794599557335,-1.626905873526671
Gamble Hill Drive,53.798653859319117,-1.626393487476322
Gamble Hill Drive,53.798571550811730,-1.625938755990653
Greenthorpe Road,53.799468788572966,-1.619721171088677
Heights Dr Greenthorpe Road,53.797765138014256,-1.618172847690804
Heights Dr Heights Way,53.796168350003661,-1.616320051047591
Heights Dr Heights Way,53.796076335139205,-1.615652917978338
Heights Drive Ascension Church,53.795492875153904,-1.613092663243944
Heights Drive Ascension Church,53.795302663233812,-1.612638985326375
Heights Drive Heights Bank,53.794342935100950,-1.610477001389789
Heights Drive Heights Bank,53.794179972487619,-1.610114178095321
Heights Drive,53.793390023578454,-1.607662302829301
Heights Drive,53.793468578739891,-1.606948098411818
Whingate Rd Conference Place,53.793938599768055,-1.605015793455378
Whingate Rd Conference Place,53.794133178748169,-1.604057595497593
Whingate Road Alliance St,53.794960849667106,-1.601575336239663
Whingate Road Alliance St,53.794977362786796,-1.601134936646771
Wortley Road,53.795771963315296,-1.599533388276715
Wortley Road,53.796280307208818,-1.598344409630475
Eighth Avenue,53.792218549358331,-1.575097356296147
Holdforth Close,53.793456971679071,-1.574553538621601
Holdforth Close,53.793312845311689,-1.574463914916565
Eighth Avenue,53.791939930136046,-1.575100170287651
Holy Family School,53.795948003559339,-1.580039106874704
Holy Family School,53.795619648867927,-1.581241687478462
Brooklyn Street,53.795200003303606,-1.584631203614864
Brooklyn Street,53.795112173794863,-1.585224124313516
Carr Crofts Drive,53.793767312814843,-1.594087539589979
Carr Crofts Leisure Centre,53.795165594428944,-1.592950662842842
Carr Crofts Leisure Centre,53.795487297873663,-1.592401034325716
Butt Lane McDonalds,53.795617121824918,-1.621046376232358
Ring Rd Royds Lane,53.779976673798082,-1.590563277014396
Ringways Ring Road,53.780791007997657,-1.594804546831746
Ring Rd Tong Road,53.791609029906482,-1.615572291521544
Ring Rd Tong Road,53.792690140432264,-1.619190424851853
Ring Rd Butt Lane,53.794515646526975,-1.622331470335309
Ring Rd Hare Farm Avenue,53.795970010862440,-1.624656310271419
Pudsey Rd Wood Lane,53.798375382942503,-1.629341271336481
Pudsey Rd Wood Lane,53.798537444019267,-1.629430935727710
Swinnow Ln Hough End,53.798666824812656,-1.633513785203843
Swinnow Ln Hough End,53.798088768208174,-1.635538014904276
Swinnow Ln Wellstone Avenue,53.799252127792755,-1.639809350554175
Swinnow Ln Wellstone Avenue,53.799558440900107,-1.640049646550161
Swinnow Ln Wellstone Rise,53.800745855249232,-1.643394897674854
Swinnow Lane Rycroft Ave,53.803558219701884,-1.646134517819229
Victoria M,53.800014467092986,-1.539445662689039
Victoria O,53.799394726214587,-1.539558726363628
Victoria I,53.798659018859190,-1.539900788405922
Corn Exchange C,53.797276779968207,-1.540401722276611
Corn Exchange E,53.796414312689009,-1.540502234465739
Corn Exchange F,53.796252883398196,-1.540595085757328
Wickes Roundabout,53.798875740155687,-1.628380384135744
Wickes Roundabout,53.798901386473077,-1.627955055884088
Spring Valley Est,53.800266885683108,-1.630645497586083
Stanningley By-Pass,53.801783110603232,-1.635627468965546
Swinnow Rd By-Pass,53.803761662906325,-1.638996349067847
Stanningley By-Pass,53.801596558963951,-1.633397158660836
Spring Valley Est,53.800867335832784,-1.630078457067245
Broadway Woodside Tavern,53.836330439454841,-1.620329673190717
New Road Side,53.835213149715123,-1.648952576874596
Broadway Stanhope Drive,53.835199859366981,-1.635444047809709
Broadway Stanhope Drive,53.835109012941757,-1.635125735072746
Fink Hill Broadway,53.835057191531121,-1.644820767563185
Fink Hill Broadway,53.835156595753304,-1.645002270764919
Alexandra Road Broadway,53.835873961656979,-1.629572707810814
Wellington A,53.796098097319124,-1.549553706799208
Woodside Rdbt,53.836812888735146,-1.619413557473244
Woodside Tavern Low Lane,53.836495232758857,-1.618443904298897
Broadway Alexandra Road,53.835807761458952,-1.628509603258077
Broadway Feather Bank Ln,53.833942310772557,-1.641669661390940
Broadway Parkside,53.834667245441644,-1.646693064945559
Broadway Alexandra Road,53.835770069809776,-1.627947701819552
Broadway Woodside Tavern,53.836447327601668,-1.620343812461179
Alexandra Road Broadway,53.835937344320811,-1.629724104824137
Broadway Wood Lane,53.836219129771941,-1.624950172000326
Horsforth The Green,53.836570257372642,-1.642832518269830
Lady Pit Lane,53.780474356652036,-1.551284027931265
Northcote Crescent,53.781313802711686,-1.545068134990255
Sweet Street,53.788804803425720,-1.546110357224017
Southbank G,53.790994028122299,-1.547468063205654
Southbank E,53.791434688905333,-1.545156031038845
Wellington M,53.795658825833236,-1.552260642357990
Globe Road,53.793249625366670,-1.559436160424166
Springwell Street,53.791859813564315,-1.562805428167215
Springwell Street,53.791662968708323,-1.563050347792745
Spence Lane,53.791024452969786,-1.565424964901383
Spence Lane,53.790421561790204,-1.565233863047604
Holbeck Lane,53.789383679996192,-1.564060641435245
Holbeck Lane,53.789348776534233,-1.564349400075733
Scholes Lane End,53.835498157953929,-1.434101177472264
Scholes Lane End,53.834650287914968,-1.435373808451567
Thorner Lane End,53.833530771646608,-1.438139126664337
Thorner Lane End,53.833394181016857,-1.437761083976541
Morwick Farm,53.831233040096535,-1.442682485459279
Baildon Drive,53.826853656473617,-1.451962387008981
Scholes Lane End,53.834681158465429,-1.434294529467976
Rakehill Road,53.829647112627114,-1.430336064194698
Station Rd Lynfield Gardens,53.827146144938638,-1.429853432698931
Station Rd Lynfield Gardens,53.826740193121793,-1.429539901878911
Malvern Road,53.779452706582873,-1.552084031824506
Parkfield Street,53.784048881137693,-1.543414639827335
Sweet Street,53.789128647197394,-1.546182757175343
Sweet Street,53.788155046894843,-1.545419161636034
Southbank F,53.791609879554187,-1.546322967424703
Station E,53.793884910402809,-1.546602040489486
Station F,53.793705328861208,-1.546649517180843
Wellington O,53.795687034524121,-1.552594325963205
Globe Road,53.793141828737340,-1.559452469510872
Broadway Parkside,53.834687364765394,-1.647422262114537
Gledhow Valley Road,53.835380576353003,-1.538997172073859
Valley Gardens,53.833987263590615,-1.538951684546088
Valley Gardens,53.833815740245321,-1.538756033825215
Wood Lane,53.831847161478720,-1.538701678721341
Wood Lane,53.831288936682135,-1.538449511381246
Regent Street,53.829634748263317,-1.538346138621854
Harrogate Rd Ingle Row,53.828418086703898,-1.537493511362056
Stainbeck Lane,53.828138709489842,-1.537299080247880
Stainbeck Lane,53.828509016176426,-1.537765983589289
Chapel Allerton Sch,53.826804144993268,-1.536174352080145
Montreal Parade,53.826142640480335,-1.534783981133096
Potternewton Lane,53.825365756544407,-1.533774730786361
Potternewton Lane,53.825836708232330,-1.534696216579871
Chpl Allerton Hosp,53.822646829050754,-1.532604821735891
Newton Parade,53.821379101430168,-1.532497399058683
Sikh Temple,53.820315779487366,-1.531795298230360
Sikh Temple,53.819928778440321,-1.531662901149879
Sikh Temple,53.820163523091225,-1.531933704054337
North Park Avenue,53.836453504658834,-1.521479788307536
North Park Avenue,53.836146230162832,-1.521057808709339
Chandos Gardens,53.834795302000060,-1.520374232249732
Gledhow School,53.833518457707299,-1.520236864558211
Gledhow School,53.833536979313173,-1.520373406115244
Lidgett Hill,53.829583774795438,-1.520752795557579
Lidgett Hill,53.829297687572733,-1.521135890637586
Thorn Lane,53.828603574880077,-1.516145303630452
Thorn Lane,53.828645141829803,-1.515309208622772
Oakwell Mount,53.828187374913554,-1.511030103736912
Oakwell Mount,53.827989771867493,-1.511062789224637
Oakwood Clock,53.827440166866396,-1.506344289532071
Oakwood Clock,53.827440916463040,-1.506526591846661
Gledhow Lane,53.828899062686034,-1.515868424268866
Spire Hospital,53.831041169626481,-1.516603431134785
Spire Hospital,53.831203435554258,-1.516723115423100
Jackson Avenue,53.833412667549247,-1.516272244026965
Gledhow Avenue,53.833256299024605,-1.519859991708128
Brackenwood Drive,53.831651191632282,-1.523053907041655
Gledhow Towers,53.831920985200235,-1.525360362547588
Lincombe Mount,53.833967825808465,-1.527023871731701
Lincombe Mount,53.834625834891341,-1.527502707775531
Larkhill View,53.836130599965763,-1.526178946911702
Larkhill View,53.835996085950342,-1.526256442821023
Brackenwood Drive,53.831953749080924,-1.522290760937163
Princes Ave Soldiers Field,53.831935177908981,-1.504407380842735
Princes Ave Soldiers Field,53.832438920722055,-1.504507798182979
Harehills Ln Newton Road,53.822671485451323,-1.527424466879368
Victoria Ind Est,53.832616216677614,-1.460168203624380
Unilever,53.829833605370730,-1.458988484948679
Unilever,53.830140549736662,-1.459288403749673
Victoria Ind Est,53.832932964886687,-1.460650360205607
Red Hall Croft,53.835615197229394,-1.461497258064661
White Laithe Road,53.836061639410033,-1.460838116455172
Willow Garth Avenue,53.835227479948749,-1.457232309213089
Naburn Close,53.829961536001051,-1.455477129226479
Naburn Place,53.833095037499646,-1.456728053005083
Sherburn Rd North Willow Garth Avenue,53.834472805063733,-1.457302842938986
White Laithe Rd Marsett Way,53.835990217097063,-1.460945403436781
Baildon Drive,53.827215375153280,-1.452443829869400
White Laithe Walk,53.833972252143944,-1.453951217147199
White Laithe Green,53.836190433700473,-1.453542480892711
Roundhay Grange,53.834565312480805,-1.474046759375786
Kentmere Gate,53.832395053456573,-1.475152738552203
Kentmere Gate,53.832763741301861,-1.475193715170616
Roundhay Grange,53.834745528872652,-1.474150869354721
Ring Rd Wetherby Road,53.836314315723335,-1.471168039736398
Ring Rd Monkswood Gate,53.833127571394542,-1.465981194788991
Ring Rd Limewood Approach,53.830116274592463,-1.461886820937404
Coal Road,53.827017226475228,-1.458295516300541
Eastdean Grange,53.823748925606317,-1.457046395513961
Eastdean Grange,53.823876124745091,-1.457348578534470
Coal Road,53.827118076568624,-1.458734798710536
Ring Rd Industrial Estate,53.828191150026434,-1.459511003388398
Ring Rd Industrial Estate,53.828327535571063,-1.459858686430178
Ring Rd Limewood Approach,53.831238410170080,-1.463589367265763
Ring Rd Monkswood Gate,53.834196734246653,-1.467912569180974
Ramshead Approach Limewood Rd,53.825950557168028,-1.460937501340313
Ramshead Approach,53.826226847230345,-1.466448719376259
Ramshead Approach Limewood Rd,53.826040227629591,-1.460890774404623
Boggart Hill Cres,53.826856940817585,-1.474811733770890
Boggart Hill,53.826701524580713,-1.482485811243796
Asket Green,53.824253897113806,-1.481817152534677
Asket Croft,53.822566658107036,-1.480318875552613
Asket Crescent,53.822036418033761,-1.478259504029840
Asket Avenue,53.822355579833911,-1.475187004482374
Asket Avenue,53.822170425261490,-1.476009615346882
Asket Crescent,53.821927312573109,-1.477972237006404
Asket Croft,53.822630425785832,-1.480515568202972
Park Edge Med Ctr,53.825733422515640,-1.483090223960022
Boggart Hill,53.827104653723765,-1.482176995543916
Ramshead Approach,53.825797875872105,-1.467001080239003
Kentmere Gardens,53.824480638074547,-1.469934568462835
North Parkway,53.822739001468236,-1.470397076741446
Kentmere Gardens,53.824678632070743,-1.469992837000849
Ramshead Hill,53.827177701559002,-1.470082849335820
Barncroft Rise,53.829187308615012,-1.473324047629910
Barncroft Drive,53.830790951729512,-1.474185182858060
Monkswood Hill,53.833577803791741,-1.472266134559032
Monkswood Hill,53.833801155428887,-1.471959429761792
Pigeon Cote Road,53.822816174537181,-1.467525014989483
Kentmere Avenue,53.822013958385782,-1.471074604098355
Rosgill Drive,53.821682851029699,-1.473448495440097
Rosgill Drive,53.821978173340561,-1.473156172483217
Kentmere Avenue,53.822573737937624,-1.469609235114874
Pigeon Cote Road,53.823245485902639,-1.467048650128995
Bailey's Lane,53.824016041697163,-1.464486723456217
Eastdean Gate,53.823118907216674,-1.458847082606850
Parkfield Way,53.813483104530512,-1.479018746721365
Moresdale Lane,53.814963762261741,-1.474352834236169
Ironwood View,53.816382447029092,-1.467910304798362
Redmire Drive,53.816644302305129,-1.464140187629855
Ironwood View,53.816440341709253,-1.468805701681860
Brooklands Lane,53.819697592485163,-1.469615158026251
Brooklands Avenue Beechwood School,53.818389047005027,-1.466396342410958
Brooklands Avenue Beechwood School,53.817747542610597,-1.467665184404244
Ironwood View,53.815538426095827,-1.468103250144700
Ironwood Approach Hawkshead Cresc,53.811577273401518,-1.468684915955911
Ironwood View Foundry Mill Street,53.814944305832718,-1.467898135561646
Baileys Ln Baileys Hill,53.822377328454792,-1.463839214115644
Baileys Lane Brooklands Ave,53.820534682038357,-1.463817155242408
Baileys Lane Rosgill Dr,53.823278454710867,-1.464359404248077
Foundry Ln Oakwood Lane,53.812890987006618,-1.489733165308914
St Nicholas RC Primary,53.811969185367097,-1.486448773855495
Foundry Lane,53.810385948314135,-1.471646145319933
Foundry Lane,53.810249329162730,-1.471237829630480
Foundry Ln Foundry Mill Drive,53.811213274379085,-1.475842475691789
Foundry Ln Oakwood Lane,53.812673153352456,-1.489234629961826
North Lane,53.829218991254102,-1.499638361214079
Roundhay Park Gates,53.830480776696142,-1.494032049964724
Elmete Drive,53.829598608887174,-1.489469466601203
Elmete Lane,53.828884552483331,-1.484327673562795
Easterly Road,53.828541480541290,-1.481885810534897
Easterly Road,53.828480665190085,-1.482372736177336
Elmete Drive,53.829547524840585,-1.490138595608324
North Lane,53.828870881263590,-1.500219845856330
Oakwood Ln Back Wetherby Terrace,53.826797748197386,-1.503131057308559
Oakwood Lane Springwood Rd,53.826181808503499,-1.501983738978274
Oakwood Lane Springwood Rd,53.825964025756761,-1.501484982430708
Oakwood Lane Montagu Cresc,53.823516245013231,-1.498597318175599
Oakwood Lane Montagu Cresc,53.823553083495924,-1.498809555268121
McDonalds,53.821834698166676,-1.496262844740924
McDonalds,53.820784156284979,-1.494376664117600
Oakwood Ln Amberton Approach,53.815062345522193,-1.490967418912967
Hollin Park Avenue,53.819003663998032,-1.492043706331244
Neath Gardens,53.810909821033128,-1.486735075324147
Wykebeck Valley Rd Coldcotes Grove,53.808132939037414,-1.488940522503563
South Farm Road,53.804260711822650,-1.489321641737635
Gipton Approach York Road,53.802507018568171,-1.493321040376206
South Farm Road,53.804254500882209,-1.489974638704678
Wykebeck Valley Road,53.805012371281705,-1.488538102977910
Boggart Hill Drive,53.827340622530535,-1.482705827111150
Dib Lane,53.823701269468231,-1.487080142646261
Easterly Grove,53.817175534006587,-1.510656996082354
Fforde Grene Jct,53.818040779139338,-1.513456921568830
Easterly Grove,53.817451981014123,-1.510122163086696
Arlington Road,53.818241992377118,-1.505510607061737
Oakwood McDonalds,53.821666089654777,-1.494639481221266
Hollin Park Mount,53.822632261149288,-1.491437779828381
Dib Lane,53.823900034087806,-1.487320777424695
Boggart Hill Drive,53.827431479827339,-1.482932597454110
Dib Lane Fearnville Close,53.820412679013742,-1.489429173891974
Dib Lane,53.823358053927898,-1.486689363028886
Lupton Ave Harehills Lane,53.806093133951066,-1.506230526465614
Torre Rd Lupton Avenue,53.799582131169998,-1.509723043059537
Torre Road,53.799548288524463,-1.510239642843909
Torre Road,53.800246441496931,-1.516167970310205
Torre Road,53.800211959528923,-1.516532752847044
Torre Rd Nippet Lane,53.801199554386571,-1.520742300116050
Nippet Lane,53.800955815165736,-1.524996319839865
Torre Road,53.801062833282096,-1.522520274694094
Co-Op Academy,53.801822185686987,-1.521357720344734
Shakespeare Gardens,53.804145905148694,-1.518066674907275
Shakespeare Street,53.805145433010409,-1.516293813736265
Shakespeare Street,53.805503591056393,-1.515955631039175
Compton Place,53.807472259748366,-1.511589950827497
Compton Place,53.807669678240387,-1.511511730214317
Harehills Park,53.810399822211295,-1.500059810092718
Foundry Place,53.809853058949351,-1.504758859334912
Foundry Place,53.810119614072235,-1.504011588932958
Compton Centre,53.808408157071057,-1.509665679051089
Amberton Approach,53.815053626190341,-1.493154614255916
Amberton Approach,53.814695789992271,-1.493553817184244
Amberton Rd Church,53.813179008609318,-1.491947035998547
Oakwood Academy,53.812784185600378,-1.498512721959566
Thorn Crescent,53.812829659017908,-1.502962062168554
Foundry Ave Thorn Crescent,53.812550854892187,-1.502919797254084
Foundry Drive,53.812520332985450,-1.506413213849318
Strathmore Drive,53.811026898869521,-1.510455213279371
Strathmore Drive,53.811135121790535,-1.510545073132552
Fearnville Avenue,53.817782872595110,-1.490296524937697
Foxwood Walk,53.821141307217900,-1.483268237635473
Grange Park Avenue,53.822383496663647,-1.485789821837967
Burmantofts Street,53.799571364001153,-1.527198237481319
Nippet Lane,53.800833410516496,-1.525863131200139
Lincoln Green Road,53.803368013113101,-1.523587338814522
Bexley Wing,53.805452765369438,-1.521210099741903
Nippet Lane,53.800294751664680,-1.526021031867633
Foundry Avenue,53.814567961819634,-1.501665719366278
Coldcotes Circus,53.809510595441779,-1.493768146905638
Coldcotes Drive,53.810142014420244,-1.490055074377336
Harehills Nice View,53.815620592043715,-1.517312392635201
Harehills Place,53.813787363706588,-1.517394195179991
Conway View,53.812241555237549,-1.517427129573163
Grant Avenue,53.808495671487123,-1.526991581397144
Harehills Lane Buller Grove,53.803846765425661,-1.502035735920582
Harehills Lane Nowell Place,53.804290557649935,-1.502850428325115
Harehills Ln Lupton Avenue,53.806811830222664,-1.506146160324764
Harehills Lane Luxor St,53.815265824905296,-1.514035819149084
Harehills Lane Dorset Ave,53.814959508238779,-1.513857103871074
Harehills Ln Berkeley Road,53.811797894825659,-1.512177544808786
Ring Rd Hansby Drive,53.819687297344984,-1.455276097477832
Ring Road Seacroft,53.819694008868211,-1.454774746137250
Ring Rd Barwick Road,53.814274191300342,-1.452794693912616
Ring Road Cross Gates,53.812151196543972,-1.452397093526563
Kingswear Parade,53.801386594973792,-1.447192796571263
Baronsmead,53.799510953359359,-1.443922842160267
Jackson Avenue,53.833469346236889,-1.516955355858859
Harehills Ln Newton Road,53.822554706296621,-1.527440971027019
Harehills Ln Roxholme Avenue,53.821787326759569,-1.524305159944664
Harehills Ln Roxholme Avenue,53.821649741427102,-1.523607955056320
Harehills Lane Roundhay View,53.820099368964101,-1.520238176743876
Harehills Lane Hilton Place,53.819834777997535,-1.519253858251611
Spencer Pl Leopold Street,53.811608203928316,-1.525392313604723
Spencer Pl Leopold Street,53.811896048161344,-1.525449811603637
Spencer Place Cowper St,53.814185368418237,-1.524786078838336
Cowper Street Hamilton Pl,53.814573462018515,-1.527469954078776
Cowper Street Hamilton Pl,53.814681552668333,-1.527529490784654
Cowper Street Chapeltown Rd,53.815022423570341,-1.531945392248873
Cowper Street Chapeltown Rd,53.815102245836343,-1.531671117333065
Mandela Centre,53.811151159732077,-1.534919526019127
Mandela Centre,53.811419199300985,-1.534506517549974
NSCD,53.812882828861966,-1.534141001730261
NSCD,53.813115092078931,-1.533773930216269
Cowper Street,53.814943784131501,-1.532523414075259
Cowper Street,53.814763735731923,-1.532449476569718
Reginald Centre,53.817860380163666,-1.531366979246581
Chpl Allerton Hosp,53.822619097094410,-1.532407649386936
Trinity S,53.794370607608229,-1.544319713327509
Corn Exchange G,53.796543246764614,-1.538967504307454
Cultural B,53.796533421173919,-1.536417136807630
Cultural C,53.796529369952353,-1.535369664880517
Cultural D,53.797008284115073,-1.531401983567431
Cultural E,53.796635124976284,-1.532514386089489
Mayville Avenue,53.811536612874789,-1.575889274278539
Commercial Road,53.813181948062471,-1.599595370554359
Kingswear Parade,53.801859536144320,-1.448401249903279
Cross Gates Ctr A,53.805725391081701,-1.452541531259553
Ring Road Cross Gates,53.812026895250888,-1.452732828185383
Harehills Avenue,53.820359087012371,-1.513308560436921
Ravenscar Avenue,53.824436437001012,-1.508111413003208
Ring Rd Whitehall Drive,53.782722511333617,-1.599885214161014
Atkinson St Fox Way,53.785278176482251,-1.526645519775721
Kirkstall Road ASDA,53.807853841071989,-1.586859955900424
Broadway Feather Bank Ln,53.833810302620691,-1.642612866049905
Donisthorpe Street,53.786306374248035,-1.529836450368730
South Accommodation Rd Donisthorpe Street,53.786083406368284,-1.530279093123695
South Accommodation Road,53.787583834355772,-1.523295559824163
East Street,53.792281803154765,-1.529420531911882
Flax Place The Avenue,53.794619665740115,-1.529667630804315
Flax Place The Avenue,53.794897568965325,-1.529482353652289
Ellerby Lane Spring Close St,53.791856646522426,-1.524173105261366
Fforde Grene Jct,53.817118466071555,-1.516535747371579
Lascelles Terrace,53.814739411520364,-1.519464018788755
Elford Place,53.812742940294100,-1.521430812574443
Spencer Place,53.810852402361995,-1.525188234388664
Spencer Place,53.811235442624167,-1.524318264946214
Barrack Road,53.810472830689172,-1.526938962540061
Barrack Road,53.810284988095873,-1.527168871928306
Roseville Road,53.811063232644031,-1.523955733784063
Roseville Road,53.810856818413726,-1.524034004151338
Queen Street,53.772590823865684,-1.516334152209677
First Direct,53.774635971241878,-1.515309201711766
First Direct,53.773836559013141,-1.515439792122510
Pontefract Road Jct,53.774755843257736,-1.513835986562283
Pontefract Road Jct,53.774176015635106,-1.512704682177120
Ida Street,53.773135581338046,-1.511032526118077
Ida Street,53.772837998671385,-1.510793216809897
Haigh Park Road,53.771037725661358,-1.507946587607245
Leysholme,53.787502224526790,-1.599308533489269
Green Hill Lane Leysholme Dr,53.787728333248836,-1.597044830895733
Green Hill Lane Leysholme Dr,53.787852478749450,-1.596542760448850
Green Hill Lane Green Hill Gdns,53.788083308432007,-1.593034356520239
Green Hill Lane Green Hill Gdns,53.788162498391976,-1.592532705251486
Five Lane Ends,53.788332841332590,-1.589768585673019
Alexandra Rd Kelsall Road,53.807146871107683,-1.569829097506393
Alexandra Rd Kelsall Road,53.806885193736655,-1.569543257372286
Civic G,53.801660271390617,-1.549175283570969
Civic I,53.801542632975512,-1.548963979838247
Carlton Hill Carlton Gate,53.806818641466492,-1.544215185949676
Headingley Campus,53.827480779497385,-1.593929033665421
Stainbeck Road Kings Mount,53.834364487118670,-1.541226805443752
Stainbeck Road Kings Mount,53.835797620291309,-1.539934721526541
Sunnybank Avenue,53.832330647328085,-1.640726167579225
City Evangelical Church,53.780781558933114,-1.558990009698361
Langley Road,53.814574082554231,-1.644978652365668
Lowfields Road,53.784006401207336,-1.575923943096941
Springfield Mount,53.797898141306220,-1.603748883425137
Wortley Road,53.797077723746234,-1.597592898983709
Pinfold Lane,53.796441028181391,-1.592695419605001
Armley Town Street,53.796998831145409,-1.590215428145872
Parkside Green,53.832770248411258,-1.566938101569576
Brudenell Road Mayville Rd,53.811194108343280,-1.573083194755910
Whingate Junction,53.793375742551625,-1.597916734281564
Springfield Mount,53.797697148841195,-1.602763961062565
Whingate Avenue,53.797519378549893,-1.600655381102221
Armley Moor,53.796983359426704,-1.596257827360609
Pinfold Lane,53.796573833249738,-1.592102059800546
Armley Town Street,53.797222539037414,-1.589924798048868
Ring Rd Stonebridge Lane,53.789892130983517,-1.612719155078276
Crab Lane,53.797555226051522,-1.587340659193865
Highthorne Street,53.799185477967818,-1.598954325105248
Highthorne Street,53.799130841120764,-1.598742293840133
Gledhow Towers,53.831992585571840,-1.525283582368422
Neville Parade,53.791980710881774,-1.495147972855475
Wellington L,53.795770389780394,-1.550847611070158
Ring Rd Cross Gates Lane,53.808906006820024,-1.452287508150874
Coronation Parade,53.791931300968919,-1.485630849946795
Mexborough Street,53.816137143669820,-1.538965247571465
Lovell Park,53.802288628978175,-1.537158418361725
Gamble Hill,53.797884527629165,-1.621815405492037
Reginald Centre,53.817113754864487,-1.531208227056421
Armley Ridge Rd Town Street,53.797454444809787,-1.597361569589868
Armley Ridge Road,53.801126185633478,-1.601441018175600
Liberty Dock,53.789846503759371,-1.529538845922704
Old Run Rd Belle Isle Road,53.770508915754455,-1.535368606847101
Buslingthorpe Lane,53.813439976824775,-1.538767017528804
City Square F,53.798146617265665,-1.546966014005900
Wesley Road,53.796318569463338,-1.588415481476582
Wesley Road,53.796030128955053,-1.588175404715858
Cottingley Vale,53.768977497946388,-1.583372781102045
Dial Street Easy Rd,53.791261341101972,-1.521386809513326
Weetwood Lane,53.828226844492782,-1.583453966156093
School La Colton Road East,53.791395802138794,-1.438368130700149
St Andrews Street,53.801191142430959,-1.563285385276066
St Michaels Church,53.818920080287619,-1.574569235562101
Kirkstall Bridge SP,53.816039979829391,-1.604975220890851
Kirkstall Morrisons,53.815561229673513,-1.604250684529021
Kirkstall Morrisons,53.814982656811274,-1.603238533601132
Cross Lane Tong Rd,53.792681233534033,-1.594523057814274
Bow Street Zion St,53.792413102460607,-1.528523447998691
Woodhouse Lane,53.810426754284045,-1.557266755556070
Byron Street,53.802383256707053,-1.533741086098023
Kirk Beston Close,53.772455762075254,-1.568089810795016
Summerfield Drive,53.816085762865761,-1.648611102974203
Summerfield Drive,53.816145382107116,-1.647486661238475
School Lane Selby Rd,53.795160668547020,-1.436207702029877
Cottingley Springs,53.766878941023293,-1.600597080638848
Barwick Road,53.815368773443858,-1.438746479686647
Dunhill Rise,53.800780955618087,-1.484793827004560
Stonebridge Lane,53.791115432095218,-1.615804492396655
School Lane,53.790774880635304,-1.438209447582836
Yew Tree Lane,53.790941378477086,-1.435383845751341
Torre Road,53.799269717295886,-1.508056620324968
Shaftesbury Jct C,53.801560802675866,-1.497006786678411
Gipton Approach,53.801579372020349,-1.492876720174052
Halton Dial,53.801505523491564,-1.490296462151249
Highways Flats,53.803308141303468,-1.483062267461456
Highways Flats,53.803280524402993,-1.482910768237550
Armley Moor,53.796802071714474,-1.595804123537997
Templegate Avenue,53.793076927598044,-1.461981276149730
Baileys Lane Brooklands Ave,53.820506769269763,-1.463604849787466
Station C,53.796086834193886,-1.546563124690803
Oakwood Lane St Nicholas School,53.811237401894502,-1.489783611526163
Hollyshaw Lane Selby Rd,53.798225648158578,-1.449769754694169
Ullswater Crescent,53.792627482764225,-1.482404171498545
Hawkswood Crescent,53.831091164226017,-1.614907236903473
Ring Road Low Wortley,53.789234633769468,-1.609522496553267
Brandon Street,53.796069888994062,-1.568788613477312
Swinnow Lane Stanningley Rd,53.806395483390432,-1.648190975162670
Waterloo Lane Landseer Rd,53.814269310221853,-1.624568886437231
City Square A,53.797559495009857,-1.548581604976054
City Square B,53.797197930820225,-1.548038946681697
Canal Rd Aviary Road,53.800014843543607,-1.583839705288909
Canal Road Pickering St,53.799924597820443,-1.583734320069335
Uplands Farm,53.777903668585033,-1.636198382358881
South Accommodation Rd Cross Green Lane,53.789521299887248,-1.524563811477553
Station C,53.795577173204784,-1.547266947042047
Station B,53.795325575483560,-1.547284835962599
Station A,53.795118687054782,-1.547241519961857
Carr Crofts Drive,53.793865304754945,-1.593828527248359
Cross Lane Tong Rd,53.792843628157492,-1.594703653049199
Hebden Approach Sherburn Rd North,53.826444043085942,-1.454778300699658
Easy Rd Cross Green Lane,53.790018041714923,-1.522903680695078
Tong Rd Roker Lane,53.780707125874713,-1.638905766158777
Wellington P,53.794176580287655,-1.557316357885499
Wellington N,53.794300222509726,-1.556723014053655
Roker Lane Tong Ln,53.780201694512513,-1.641201594333668
Stonebridge Lane,53.791051691359350,-1.615547025059719
Kingswear Cres Lulworth Cres,53.799820960229575,-1.441003672972633
Leeds City College,53.800783874393765,-1.557611201962130
Woodhouse Square,53.801904365563665,-1.556794698651043
Leeds Dental Hosp,53.803567142252582,-1.556792357783144
Worsley Building,53.803646499739713,-1.553952121189070
LGI A&E,53.803618335394681,-1.551219308970731
Civic H,53.803364731471277,-1.548306714373009
Eightlands Lane,53.806735252185952,-1.623892086530077
Argie Avenue Sacred Heart RC School,53.812805976044167,-1.594693471708646
Water Lane,53.794755665015991,-1.624348349798426
Wood Lane,53.797138889957644,-1.627682194219675
Poplar Mount,53.799075665103615,-1.614820851583948
Poplar Mount,53.799130078754871,-1.614972176221913
Holy Rosary & St Annes School,53.812160265901312,-1.530929354794102
Broadlea Close,53.817151465301080,-1.615110899033232
Broadlea Mount,53.814982079098797,-1.611303380277244
Leeds Dock C,53.792515347935854,-1.536309617666115
Hollyshaw Ln Ring Road Halton,53.803220753556680,-1.451237961607469
Leeds Dock A,53.790915415815640,-1.533974449351407
Oatland Rd Oatland Place,53.810261633742861,-1.542006210281394
Holy Family RC Primary School,53.796759711024180,-1.580835619982235
Clay Pit Lane Arena,53.804072207993869,-1.542878384666739
Green Park,53.828808618684434,-1.458910527003542
East Park Road Garton Rd,53.792386971195825,-1.512979509136617
Pontefract Ln Cross Green Lane,53.790091114446796,-1.512019446559616
Poplar Way,53.800636621597292,-1.616704411210630
Poplar Way,53.800554567609353,-1.616340771627623
Cragg Rd Cragg Avenue,53.833779615360221,-1.635395593194212
Burley Lane Regent Rd,53.833201211858551,-1.637315132638172
Clarence Clarence Gardens,53.831251210402762,-1.640431520192041
Newlaithes Gardens,53.830058750466158,-1.641414106540699
Victoria Crescent,53.829249948341619,-1.644474835533709
Victoria Drive,53.831306682922062,-1.647010008843367
Ring Rd Limewood Approach,53.830081073640741,-1.462054401269281
Dyer Street,53.796640862551563,-1.536309682546472
Rossefield Approach,53.807350067116644,-1.627941050916931
Rossefield Approach,53.807360183960569,-1.628305407614096
Knowsthorpe Lane Long Causeway,53.785250099632052,-1.517342128238441
Cross Green Drive,53.785010823390792,-1.513732686271353
Rossefield Approach Rossefield Grange,53.806021525892021,-1.628484272337340
St Catherines Drive St Catherines Hill,53.819567305956774,-1.625873446553496
Ganners Way Ganners Ln,53.818278848955103,-1.633585841692294
Wellington Grove Ganners La,53.817841914280940,-1.628865857045654
Middleton Grove,53.767195608625436,-1.545615125574468
Middleton Grove,53.767656852996680,-1.546368696883685
Old Run Rd West Grange Drive,53.768216405125926,-1.535227022280334
Clarence Rd Sayner Lane,53.787664035081477,-1.527665974364256
Middleton Grove,53.769632890702049,-1.548395584539256
Moor Rd Carr Moor Street,53.773338501059932,-1.537264351597697
Rossefield Approach Rossefield Grange,53.806155636996003,-1.628255315175538
Stonebridge Lane Stonecliffe Lawn,53.788529092899395,-1.619319153571722
Civic J,53.799149970879014,-1.548473440095691
St Catherines Drive St Catherines Hill,53.818158859584287,-1.623850634715933
Thorpe Park,53.793094669309745,-1.428872981563683
Branch Road,53.780161514657998,-1.605494125667458
Poole Crescent,53.806661817877220,-1.460850780768694
Moor Rd Beza Street,53.775289826130091,-1.537500854607752
Roker Lane Low Farm,53.782982389439255,-1.645366589899725
Thorpe Park,53.792909253215385,-1.429573786985465
Aire Valley Way Pontefract Ln,53.788903325474280,-1.511684114356536
John Smeaton High School,53.814310051644071,-1.435312965585196
Fearnville View,53.817688656266036,-1.487168717472602
Fearnville Terrace,53.817581318928802,-1.483099363982497
Fearnville Place,53.819267444579516,-1.482258383034898
Hollyshaw Ln Hollyshaw Crescent,53.800679942251030,-1.449889470493755
Ullswater Crescent Coronation Parade,53.792509858107664,-1.482223459025364
Coronation Parade,53.792194997695596,-1.486341079322434
First Bus Depot,53.802726191679561,-1.623760919900278
Burmantofts HC,53.802404147021214,-1.525313997606696
Victoria C,53.798793893172949,-1.537576433918711
Headrow E,53.799016219015918,-1.541642844625988
Civic Q,53.799481257632039,-1.548135869338529
Elland Road Park and Ride,53.776889615489026,-1.576420524654683
Grimes Dike,53.827867804860240,-1.449670238429301
Grimes Dike,53.827820776880785,-1.449215071334871
Kirkgate High Court,53.795327548794148,-1.536035721907851
Ethel Jackson Rd,53.807694368435385,-1.439046354766909
Stanks Cross,53.817071278508351,-1.437630142222149
Cobden Rd Whincover Road,53.783457425845754,-1.610167988683071
Cultural F,53.795886832159134,-1.534238174945090
Victoria H,53.798726957597850,-1.538867656182724
Victoria G,53.798670462871399,-1.538200260065880
Tong Rd Roker Lane,53.780625870268587,-1.638785058412237
Moor Rd Royal Drive,53.772247536149848,-1.531753503109391
Moor Rd Royal Drive,53.772361241792339,-1.533254333711237
West Grange Dr Belle Isle Road,53.768766156721263,-1.530988137845476
West Grange Dr Belle Isle Road,53.768593432078731,-1.530489408245889
Newlay Lane Ganners Mount,53.816995269544719,-1.634143824865046
St Catherine's Dr Ganners Hill,53.819673014757079,-1.628075013664946
Pontefract Ln Bell Wood Roundabout,53.780675145270728,-1.482824352491258
Pontefract Lane Thornes Farm Roundabout,53.784735922234013,-1.495052775401538
Pontefract Ln Newmarket Lane,53.786642889888178,-1.504030357374553
Pontefract Lane Thornes Farm Roundabout,53.785049466904873,-1.494806176156640
Pontefract Ln Bell Wood Roundabout,53.780988664848763,-1.482577686261463
Temple Green Park and Ride,53.777748588807562,-1.479491540880886
Water Lane Tong Court,53.794384597943164,-1.623531912132854
Poplar Mount Poplar Way,53.798851117504029,-1.614868454401586
Rossefield Gr Henley Crescent,53.807857468943404,-1.629257694542794
Rossefield Gr Henley Crescent,53.807901328442888,-1.628908042408355
Leeds Bus Station Entrance,53.796627175881895,-1.535095318621078
Wellington Bridge St Real Time Tracking,53.796733204901273,-1.560857093838558
Fairway Hill,53.810582671550286,-1.500801774074080
Clarendon Rd Mount Preston Street,53.805728655673384,-1.560429089476678
St Wilfrid's Avenue,53.812240185109694,-1.503865071122329
Wellington C,53.796482190336675,-1.553724470993356
Victoria E,53.799359659532890,-1.535125843344566
Elland Road Bus Park,53.779189366497548,-1.571025389788536
Elland Road Bus Park,53.779176032257261,-1.569811516537867
Elland Road Bus Park,53.779066655319149,-1.569387732330132
Elland Road Bus Park,53.779328986884238,-1.569855478738766
Elland Road Bus Park,53.779228870088140,-1.569507473819922
New York Road,53.800844892327078,-1.538024553517822
Broadgate Walk Broadway,53.836574748215341,-1.632408147056965
Broadgate Walk Wood Lane,53.836788673018063,-1.626008800044433
Stanhope Drive Sunnybank Ave,53.833360501111528,-1.639471398761007
Blue Hill Lane,53.785553795886884,-1.602605403989628
Blue Hill Ln Cliffe Park Crescent,53.789529345993280,-1.603463408402746
Blue Hill Ln Silver Royd Hill,53.792787568297968,-1.604844439836381
Silver Royd Hill,53.792277971630725,-1.608416484390953
Stonebridge Ln Bawn Avenue,53.790908713533383,-1.615806379985761
Stonebridge Ln Bawn Lane,53.789073247248425,-1.618024044630439
Stonebridge Lane Stonecliffe Crescent,53.789164235627737,-1.618372328569246
Stonebridge Ln Bawn Avenue,53.790927854780911,-1.616170509118733
Silver Royd Hill Silver Royd Road,53.792413382171368,-1.608597382510779
Blue Hill Lane,53.792840344665883,-1.604494803525607
Blue Hill Ln Cliffe Park Crescent,53.789519103739146,-1.603084034225280
Blue Hill Lane,53.785715123082980,-1.602467283428133
Victoria F,53.798901759431551,-1.535252362730435
Manston Lane,53.806550121569146,-1.428933165516038
Station D,53.795904152694874,-1.545790854470206
Skelton Moor Way,53.788700163705215,-1.482513205138589
Quebec Street,53.796906760520550,-1.549484320540839
Civic P,53.799491730968740,-1.548530500816931
Bishop Young C of E Academy,53.819751797523487,-1.477877744304799
Victoria J,53.799386670329788,-1.539801733427791
