Name,Latitude,Longitude
Piccadilly Rail Station,53.47874,-2.232454
Queens Grove,53.45757,-2.194191
Daisy Bank Road,53.45715,-2.217291
St Georges Drive,53.50949,-2.190071
Faraday Street,53.482927,-2.23343
Chatham Street,53.47985,-2.233681
Branston Road,53.52449,-2.173199
East Didsbury Metrolink Stop,53.41115,-2.218245
Leyton Avenue,53.50884,-2.187264
Kenyon Lane,53.5088,-2.188711
Belle Vue,53.462386,-2.180372
Matthews Lane,53.451,-2.180173
Hilton Street,53.48191,-2.232984
Lavister Avenue,53.41962,-2.212932
Great Ancoats Street,53.47876,-2.221244
Clitheroe Road,53.45287,-2.203371
Piccadilly Gardens,53.48144,-2.235483
St Agnes Church,53.45045,-2.197155
Piccadilly Gardens,53.48131,-2.23645
Elsdon Road,53.44791,-2.201992
Thorncliffe Grove,53.44393,-2.181934
Travis Street,53.47568,-2.230795
Travis Street,53.475037,-2.229948
Travis Street,53.47561,-2.230237
Burgess Primary School,53.5056,-2.211735
Manchester Piccadilly Rail Station,53.47683,-2.231464
Piccadilly Rail,53.47871,-2.232966
Burgess Primary School,53.50485,-2.209484
Asda,53.45715,-2.198542
Piccadilly,53.48009,-2.233652
Piccadilly,53.48042,-2.234
Piccadilly,53.4804,-2.234211
Asda,53.45696,-2.198812
Pink Bank Lane,53.4583,-2.191981
Piccadilly Gardens,53.4812,-2.236
Piccadilly Gardens,53.48161,-2.236719
Piccadilly Gardens,53.48196,-2.236375
Chancellor Lane,53.47512,-2.215168
Every Street,53.48121,-2.215456
Nuthurst Road,53.51733,-2.177574
Fallowfield Shopping Centre,53.44271,-2.205595
Lytham Road,53.44571,-2.206468
Old Hall Lane,53.44772,-2.20714
Telfer Road,53.44947,-2.208158
Birch Hall Lane,53.45096,-2.209113
Dickenson Road,53.45351,-2.211249
Denison Road,53.45626,-2.215961
Daisy Bank Road,53.45759,-2.218272
Grosvenor Street,53.47078,-2.233541
Booth Street East,53.46915,-2.231679
Brunswick Street,53.46786,-2.230135
Upper Brook Street,53.46519,-2.226009
Hyde Grove,53.46396,-2.221544
Lincoln Grove,53.46292,-2.217758
Winterford Avenue,53.46238,-2.215752
Richmond Grove,53.46034,-2.20934
Clarence Road,53.45981,-2.205843
Clarence Road,53.4597,-2.205632
Daisy Bank Road,53.46011,-2.209053
Hathersage Road,53.4612,-2.212296
Winterford Avenue,53.46255,-2.216882
Lincoln Grove,53.46312,-2.218964
Hyde Grove,53.46386,-2.221618
Upper Brook Street,53.46507,-2.226098
Grafton Street,53.4639,-2.225429
Swinton Grove,53.461371,-2.22254
Hathersage Road,53.45869,-2.219423
Denison Road,53.4552,-2.213773
Upper Kent Road,53.45461,-2.212625
Birchfields Avenue,53.45197,-2.209736
Telfer Road,53.44905,-2.207704
Old Hall Lane,53.44681,-2.206594
Lytham Road,53.44458,-2.205935
Fallowfield Shopping Centre,53.44367,-2.20566
The Unicorn,53.48315,-2.238069
Lavister Avenue,53.41992,-2.212903
Didsbury Road,53.41196,-2.214744
Berwick Avenue,53.4166,-2.213835
Berwick Avenue,53.41611,-2.214118
Dresden Street,53.51135,-2.181982
Gaskell Street,53.50024,-2.17702
Minshull Street South,53.47706,-2.232867
Dale Street,53.48161,-2.233163
Upper Brook Street,53.46737,-2.2284
Brunswick Parish Church,53.46815,-2.227184
Brunswick Parish Church,53.46866,-2.225907
Ardwick Green,53.46976,-2.22412
Piccadilly Station,53.47922,-2.232246
Carruthers Street,53.48135,-2.214929
Carruthers Street,53.48046,-2.215738
Oswald Street,53.47943,-2.217119
Great Ancoats Street,53.47907,-2.217328
Sunny Brow Park,53.45861,-2.175069
Radnor Street,53.460531,-2.176343
Ryder Brow Station,53.45604,-2.172875
Hemsworth Road,53.45439,-2.172416
Hemsworth Road,53.45356,-2.168468
Sandown Crescent,53.4521,-2.17179
Wembley Road,53.45396,-2.1764
Balmain Avenue,53.45381,-2.179326
Belle Vue,53.46182,-2.181996
Belle Vue,53.46193,-2.18242
Windsor Street,53.45987,-2.181219
Windsor Road,53.45934,-2.181006
Buckley Road,53.45819,-2.181212
Buckley Road,53.45765,-2.181029
Darras Road,53.4561,-2.181203
Darras Road,53.45556,-2.18099
Melland Road,53.45396,-2.181134
Melland Road,53.45313,-2.180739
Hall Moss Road,53.526,-2.196073
Matthews Lane,53.44961,-2.179519
Manor Road,53.44771,-2.179406
Manor Road,53.44725,-2.179825
Milford Drive,53.43647,-2.182188
Stockport Road,53.43595,-2.183737
Stockport Road,53.435757,-2.183751
Carrill Grove,53.445506,-2.191381
Manchester Grammar School,53.44697,-2.210328
Manchester Grammar School,53.44697,-2.210328
Delamere Road,53.44215,-2.189921
Longden Road,53.45029,-2.193134
Longden Road,53.44983,-2.1925
Woodfold Avenue,53.44786,-2.191798
Mayford Road,53.447565,-2.191451
Carrill Grove,53.44561,-2.191637
Albert Road,53.44371,-2.191463
Albert Road,53.442882,-2.190948
Crayfield Road,53.44121,-2.189149
Crayfield Road,53.4407,-2.188379
Broom Lane,53.43917,-2.186806
Broom Lane,53.4395,-2.18738
Lloyd Road,53.43642,-2.184943
Crossley Road,53.436145,-2.194244
Cringle Park,53.43712,-2.193752
Crompton Road,53.43721,-2.193872
Clare Road,53.43925,-2.193009
Milwain Road,53.43976,-2.193237
Alma Road,53.442439,-2.192904
Alma Road,53.442432,-2.192996
Levenshulme Station,53.44413,-2.193227
Levenshulme Station,53.44397,-2.193316
Slade Lane,53.44365,-2.197922
Slade Lane,53.44308,-2.199695
Fortuna Grove,53.442776,-2.201702
Fortuna Grove,53.44247,-2.202402
Albert Road,53.44305,-2.199033
Scarisbrick Road,53.44139,-2.199913
Scarisbrick Road,53.44083,-2.199881
Cringle Hall Road,53.43966,-2.200387
York House,53.439066,-2.199812
Acacias School,53.43747,-2.200226
Acacias School,53.43734,-2.20003
Crossley Road,53.43586,-2.200309
Crossley Road,53.43539,-2.200186
Mauldeth Road,53.4329,-2.200671
Errwood Road,53.4316,-2.196978
Mauldeth Road,53.43222,-2.200578
Farmers Arms,53.43064,-2.201127
St Bernard's Church,53.42913,-2.201075
Burnage High School,53.42764,-2.202738
Burnage High School,53.42744,-2.202647
Ladybarn Lane,53.44193,-2.214489
Ladybarn Lane,53.44207,-2.21321
Lindleywood Road,53.44202,-2.208859
Lindleywood Road,53.44188,-2.210875
Laystall Street,53.48195,-2.227424
Errwood Road,53.43552,-2.193624
Crossley Road,53.43505,-2.19448
Avon Road,53.43182,-2.195759
Avon Road,53.431,-2.195876
Shawbrook Road,53.4295,-2.196561
Shawbrook Road,53.42877,-2.196784
Westdean Crescent,53.4273,-2.199245
Westdean Crescent,53.42703,-2.19947
Carrgreen Close,53.42464,-2.20351
Carrgreen Close,53.42438,-2.20378
Barcicroft Road,53.42284,-2.207787
Barcicroft Road,53.4225,-2.208161
Lane End Road,53.42104,-2.210862
Burnage Lane,53.42074,-2.211989
Burnage Station,53.42087,-2.214127
Clayton Avenue,53.42153,-2.22847
Clayton Avenue,53.42172,-2.229193
Wilmslow Road,53.4225,-2.231666
Wilmslow Road,53.45214,-2.221407
Wilmslow Road,53.45209,-2.221124
Birch Polygon,53.45285,-2.215628
Birch Polygon,53.453,-2.215463
Ashover Avenue,53.46709,-2.203484
Birchfields Road,53.45363,-2.212153
Anson Road,53.45411,-2.210514
Clarence Road,53.45478,-2.207506
Clarence Road,53.45483,-2.206783
Longsight Market,53.45605,-2.201293
Longsight Market,53.45622,-2.201037
Slade Lane,53.45464,-2.197551
Slade Lane,53.45449,-2.197023
East Road,53.45338,-2.195783
East Road,53.45287,-2.195058
Birchfields Road,53.442,-2.206299
Birchfields Road,53.44183,-2.206344
Burnage Lane,53.43262,-2.201031
Burnage Lane,53.43252,-2.201166
Kingsway,53.43229,-2.206719
Mauldeth Road Rail Station,53.433,-2.209642
Mauldeth Road Primary School,53.43364,-2.210428
The Unicorn,53.48287,-2.237239
Palmerston Street,53.4808,-2.212181
West Avenue,53.51481,-2.169616
West Avenue,53.51503,-2.169918
Nuthurst Road,53.51735,-2.168902
Elsham Gardens,53.458749,-2.189769
Moseley Road,53.44279,-2.199393
Monsall Road,53.50249,-2.204997
Monsall Road,53.502527,-2.204545
Bunsen Street,53.482418,-2.234102
Peel Grove,53.45889,-2.195056
St Anselm Hall,53.45411,-2.212095
St Matthew's High School,53.51803,-2.175103
Broadway,53.51699,-2.1697
Lindeth Avenue,53.45715,-2.168452
Ercall Avenue,53.46894,-2.207605
St Benedict's Square,53.46953,-2.204038
Ercall Avenue,53.46902,-2.207666
St Benedict's Square,53.46945,-2.205468
Armitage Court,53.46869,-2.20188
Etihad Campus,53.48435,-2.19671
Vickers Street,53.49342,-2.207921
Legh Street,53.4645,-2.22349
Velopark Metrolink Stop,53.48118,-2.194616
Willow Street,53.47976,-2.194247
Vickers Street,53.49298,-2.208009
Kay Street,53.47436,-2.198833
Ridgway Street,53.485033,-2.217628
West Point,53.44518,-2.198802
Collingwood Road,53.44744,-2.197653
St Agnes Church,53.45045,-2.197366
Crowcroft Road,53.45234,-2.197013
Stockport Road,53.4545,-2.198032
Garforth Avenue,53.48744,-2.220219
Longsight Library & Learning Centre,53.458176,-2.202111
Piccadilly,53.48054,-2.234363
Plymouth Grove,53.46029,-2.20556
Longsight Police Station,53.46139,-2.207734
Plymouth Grove West,53.46262,-2.20987
Winterford Avenue,53.464507,-2.213217
Devonshire Street,53.46606,-2.215951
Apollo Theatre,53.46896,-2.222142
Apollo Theatre,53.4694,-2.222792
Cavanagh Close,53.4674,-2.219859
Cavanagh Close,53.4672,-2.218774
Devonshire Street,53.46573,-2.215061
Winterford Avenue,53.46426,-2.212447
Plymouth Grove West,53.4625,-2.209366
Plymouth Grove,53.46064,-2.205908
Longsight Shopping Centre,53.45737,-2.200877
Longsight Library & Learning Centre,53.458019,-2.201739
Crowcroft Road,53.45151,-2.196829
Park Avenue,53.44644,-2.197739
West Point,53.44494,-2.19865
Church Lane,53.50514,-2.194876
Halliford Road,53.50332,-2.194446
The Gateway,53.503305,-2.198733
Business Park,53.50241,-2.201407
Stevenson Square,53.48242,-2.233815
Princess Street,53.47377,-2.238408
Palmerston Street,53.48087,-2.212169
Nicholls College,53.46923,-2.217474
Every Street,53.48145,-2.215954
Sacred Heart Church,53.457577,-2.173274
Ryder Brow Station,53.45601,-2.172724
Beckett Street,53.46075,-2.176358
Hampden Crescent,53.46286,-2.178325
High Street,53.483,-2.238083
Gorton Lane,53.46742,-2.185288
Gorton Lane,53.46742,-2.185288
Toft Road,53.45944,-2.175449
Balmain Avenue,53.45371,-2.179537
Wembley Road,53.4539,-2.176541
Harlow Drive,53.45245,-2.174517
Sandown Crescent,53.45231,-2.170405
Greenlea Avenue,53.4532,-2.168451
Southcross Road,53.45398,-2.171798
Sheffield Street,53.47697,-2.225378
Gorton Lane,53.46736,-2.185138
New Cross,53.48515,-2.23261
Stevenson Square,53.48249,-2.233695
East Didsbury Station,53.41053,-2.221596
Postal Street,53.48261,-2.231782
Debdale Lane,53.4568,-2.160198
Central Park Metrolink Stop,53.50204,-2.1994
Central Park Metrolink Stop,53.5022,-2.199551
Piccadilly Rail Station,53.47823,-2.231924
Piccadilly App - Ducie Street,53.47794,-2.231697
Newton Heath Terminus,53.50191,-2.183615
Turning Circle (Stop F),53.50195,-2.18363
Oldham Street,53.48233,-2.235232
Droylsden Road,53.50012,-2.171879
Newton Heath Youth Club,53.500833,-2.171316
Cawdor Road,53.4444,-2.21837
St Mary's,53.458423,-2.227042
Dagenham Road,53.455604,-2.22519
Rusholme Centre,53.45417,-2.224595
Rusholme Centre,53.45361,-2.223523
Dickenson Road,53.45265,-2.222674
Platt Fields Park,53.45062,-2.221293
Platt Lane,53.45083,-2.22177
Grangethorpe Road,53.44828,-2.219836
Grangethorpe Road,53.44838,-2.220137
Old Hall Lane,53.44565,-2.217835
Owen's Park,53.44343,-2.21835
Langley Road,53.44541,-2.21812
Wilmslow Road,53.44272,-2.219325
Wilmslow Road,53.44264,-2.220017
Wellington Road,53.44294,-2.221991
Wellington Road,53.44291,-2.22315
Hart Road,53.44323,-2.225591
Hart Road,53.44323,-2.226886
Yew Tree Road,53.44357,-2.231178
Yew Tree Road,53.44371,-2.230998
Wilbraham Road,53.44401,-2.231692
Hart Road,53.44632,-2.230515
Platt Lane,53.44883,-2.230379
Platt Fields Park,53.4501,-2.227464
Heald Place,53.44988,-2.227854
Didsbury Road,53.41187,-2.214999
Annesley Road,53.51883,-2.167671
Crown Green Close,53.42447,-2.2014
Droylsden Road,53.50016,-2.172014
Pink Bank Lane,53.45841,-2.192569
Wilmslow Road,53.4511,-2.223223
Piccadilly Gardens,53.4817,-2.235138
Nethervale Drive,53.50727,-2.210853
Nethervale Drive,53.50743,-2.211503
Two Hundred,53.50526,-2.212532
Two Hundred,53.50546,-2.212458
Palgrave Avenue,53.49968,-2.213559
Hayden Court,53.49893,-2.212998
Turner Street,53.48412,-2.238044
Peel Grove,53.45924,-2.195102
Parkin Street,53.45588,-2.192904
Santley Street,53.45469,-2.19213
East Road,53.45369,-2.191644
Stovell Avenue,53.452,-2.190386
Stovell Avenue,53.4522,-2.190673
Longden Road,53.45005,-2.190121
Maida Street,53.44928,-2.188703
Maida Street,53.44928,-2.187905
Hornbeam Road,53.44976,-2.184158
Hornbeam Road,53.449607,-2.184534
Cranmere Avenue,53.45018,-2.180982
Cranmere Avenue,53.4499,-2.182291
Rosina Street,53.47276,-2.15384
Colmore Drive,53.52719,-2.195234
Cotton Grass Drive,53.52839,-2.194802
Cotton Grass Drive,53.52928,-2.195545
Colmore Drive,53.52742,-2.195537
Selkirk Drive,53.52429,-2.199655
Selkirk Drive,53.52435,-2.199399
Athol Street,53.45542,-2.15885
Hyde Road,53.46241,-2.171124
Dalbeattie Street,53.51355,-2.210674
Moston Cemetery,53.51699,-2.18834
Grange Drive,53.52528,-2.197473
Pottery Lane,53.46546,-2.197466
Whitebeck Ct,53.52856,-2.191756
Cartmel Court,53.52878,-2.190565
Fairfield Avenue,53.47252,-2.151775
Whitebrook Road,53.44194,-2.231636
Wilbraham Road,53.44424,-2.231859
Gardener's Arms,53.526653,-2.176065
Gardener's Arms,53.526228,-2.176356
Haverfield Road,53.52759,-2.207289
Haverfield Road,53.52742,-2.20765
Benmore Road,53.52866,-2.20393
Benmore Road,53.52888,-2.203418
Grasdene Avenue,53.5268,-2.210272
Grasdene Avenue,53.52668,-2.210286
Rochdale Road,53.52635,-2.211778
Rochdale Road,53.52151,-2.214197
Rochdale Road,53.52158,-2.213413
Polefield Road,53.52243,-2.20847
Polefield Road,53.52237,-2.208108
Boggart Hole Clough,53.52353,-2.204101
Boggart Hole Clough,53.52348,-2.204403
Grange Park Road,53.52377,-2.200045
Grange Park Road,53.52362,-2.20015
Booth Hall Road,53.52354,-2.195775
Booth Hall Road,53.52354,-2.197208
Southdown Crescent,53.52323,-2.191611
Southdown Crescent,53.52326,-2.193481
Elaine Avenue,53.52274,-2.185334
The Charlestown,53.522893,-2.188472
Moston Lane,53.52259,-2.183388
Moston Lane,53.52254,-2.184081
Leyburn Road,53.52322,-2.181309
Leyburn Road,53.52339,-2.180601
Gardener's Arms,53.52497,-2.177183
Gardener's Arms,53.5251,-2.176671
Shawford Road,53.52161,-2.182117
Newton Heath & Moston Metrolink Stop,53.50301,-2.184434
Newton Heath & Moston Metrolink Stop,53.50409,-2.184589
St Mary's Nursing Home,53.51059,-2.182431
Williams Road,53.505698,-2.184278
Dean Brook Inn,53.50809,-2.183249
Williams Road,53.506428,-2.184069
St Mary's Nursing Home,53.50994,-2.182489
Dean Brook Inn,53.50881,-2.183162
Tymm Street,53.51337,-2.181131
Tymm Street,53.51352,-2.181267
Lightbowne Church,53.51019,-2.192834
Deanway,53.51005,-2.193919
Lily Lane,53.5114,-2.196187
Piccadilly Rail Station,53.477856,-2.231907
Piccadilly Rail Station,53.47776,-2.231922
Stevenson Square,53.48252,-2.233394
Farmers Arms,53.43084,-2.200917
The Unicorn,53.48289,-2.237329
Piccadilly Gardens,53.48095,-2.235646
Cartmel Court,53.52944,-2.190477
Piccadilly Rail Station,53.47633,-2.22927
East Didsbury Metrolink Stop,53.41169,-2.219
East Didsbury Metrolink Stop,53.41162,-2.218623
School Lane,53.41452,-2.216893
School Lane,53.41536,-2.216837
Homestead Crescent,53.41813,-2.215121
Homestead Crescent,53.41747,-2.215148
Fog Lane,53.42016,-2.213973
Fog Lane,53.42052,-2.213297
Barcicroft Road,53.42345,-2.212349
Barcicroft Road,53.42354,-2.211913
Green End Road,53.42772,-2.210354
Green End Road,53.427,-2.21023
Briarfield Road,53.42979,-2.209356
Briarfield Road,53.42923,-2.209217
Mauldeth Road,53.43176,-2.207996
Mauldeth Road,53.43306,-2.207851
Grangethorpe Drive,53.43737,-2.206458
Grangethorpe Drive,53.43626,-2.206302
Moseley Road,53.4417,-2.204251
Moseley Road,53.44175,-2.204236
Moseley Road,53.44146,-2.203903
Northwold Drive,53.52766,-2.183198
Back Piccadilly,53.48088,-2.234154
Tesco,53.46096,-2.171871
Minshull Street,53.478032,-2.233973
Fernclough Road,53.50887,-2.215536
Fernclough Road,53.50896,-2.215551
Piccadilly,53.47978,-2.233334
Rochdale Road,53.48747,-2.232186
Melville Close,53.47128,-2.160132
Thomas Street,53.48329,-2.234529
Kirkbridge Road,53.480933,-2.208598
Kirkbridge Road,53.48097,-2.208417
Rylance Street,53.47992,-2.205188
Doric Close,53.47965,-2.204011
Sarah Street,53.47892,-2.199502
Sarah Street,53.47879,-2.199125
Clayton Hall Metrolink Stop,53.48241,-2.183154
Greenside Street,53.479467,-2.1851
Elrick Walk,53.478739,-2.184298
Tarland Walk,53.47848,-2.181977
Bob Massey Close,53.47853,-2.181419
Meech Street,53.476212,-2.180912
Meech Street,53.47569,-2.180895
Parkhouse Street,53.47457,-2.181207
Ashton Old Road,53.47414,-2.181129
Tib Street,53.48295,-2.236862
Sacred Heart Church,53.45737,-2.173347
Lidl,53.47281,-2.166028
Printworks Lane,53.44605,-2.177171
Southwold Close,53.44572,-2.175001
Southwold Close,53.4458,-2.174971
Printworks Lane,53.44593,-2.177185
Longden Road,53.45004,-2.190272
Tutbury Street,53.47982,-2.216669
Tutbury Street,53.47951,-2.216833
Upper Monsall Street,53.50258,-2.206413
Nuthurst Road,53.51648,-2.168914
Canberra Street,53.48418,-2.177375
Canberra Street,53.48438,-2.177255
Schofield Street,53.48338,-2.175397
Ducie Street,53.48095,-2.225309
Ivy Street,53.513936,-2.195383
Ivy Street,53.5138,-2.195369
Leighton Street,53.51436,-2.192581
Blue Bell,53.51541,-2.191455
Blue Bell,53.51572,-2.190747
Moston Cemetery,53.51656,-2.189469
Horncastle Road,53.51817,-2.185616
Horncastle Road,53.51843,-2.185556
Broadhurst Fields,53.51926,-2.182845
Broadhurst Fields,53.51952,-2.1825
Charlestown Road,53.52192,-2.182315
Enderby Road,53.51833,-2.178965
Broadway,53.51674,-2.168236
New Moston Library,53.51664,-2.168371
Parkhurst Avenue,53.51591,-2.165005
Parkhurst Avenue,53.51561,-2.164311
Stockport Road,53.45929,-2.202091
New Bank Street,53.45945,-2.201851
Northmoor Road,53.45989,-2.194398
Northmoor Road,53.46014,-2.193932
Pink Bank Lane,53.460615,-2.191963
Pink Bank Lane,53.46051,-2.191855
Belle Vue,53.4623,-2.1837
Belle Vue,53.4625,-2.183354
Gardener's Arms,53.52478,-2.173457
Gardener's Arms,53.52475,-2.17403
Moston Rail Station,53.52395,-2.170618
Wilson Street,53.477778,-2.193202
Grey Mare Lane,53.47677,-2.193691
Glenside Avenue,53.45601,-2.16981
Tib Street,53.48295,-2.236862
Piccadilly Gardens,53.480933,-2.235254
Portland Street,53.48091,-2.235209
Velopark Metrolink Stop,53.481932,-2.194092
Velopark Metrolink Stop,53.48194,-2.193338
Clayton Lane,53.48293,-2.182252
Cromwell Range,53.44747,-2.219003
Cromwell Range,53.44745,-2.21932
Grindlow Street,53.46087,-2.210879
Kay Street,53.47432,-2.19811
Melland School,53.45155,-2.173946
Broadway,53.52137,-2.16661
Gardener's Arms,53.52473,-2.176006
Gardener's Arms,53.52456,-2.176427
Leyburn Road,53.52268,-2.177249
Leyburn Road,53.52248,-2.177701
Nuthurst Road,53.51919,-2.179452
Nuthurst Road,53.51928,-2.179693
Barcliffe Avenue,53.51921,-2.181111
Moston Rail Station,53.523819,-2.170701
Greengate,53.52557,-2.17711
Greengate,53.525831,-2.177353
Kingsway,53.43219,-2.206643
Northwold Drive,53.52763,-2.183606
Moorway Drive,53.52899,-2.187534
Moorway Drive,53.52913,-2.188802
Amesbury Road,53.5302,-2.202112
Amesbury Road,53.52982,-2.202095
Colmore Drive,53.52978,-2.192908
Lily Lane,53.51126,-2.196322
Moston Lane,53.51368,-2.196574
Dalbeattie Street,53.51377,-2.212047
Hillier Street North,53.513365,-2.206598
Hillier Street North,53.51331,-2.207536
Edward Street,53.513287,-2.2049
Mowers Arms,53.51381,-2.203014
Cole Street,53.51375,-2.200435
Cole Street,53.513795,-2.200852
The Fairway,53.51751,-2.171301
The Fairway,53.51773,-2.172614
St Mary's Road,53.51782,-2.175736
St Mary's Road,53.51788,-2.177244
Arden Grove,53.51532,-2.179842
Arden Grove,53.51596,-2.179378
The Unicorn,53.483085,-2.237753
Thomas Street,53.48355,-2.234395
Thomas Street,53.48381,-2.234019
Warwick Street,53.48396,-2.233613
Oldham Road,53.48648,-2.230598
Thompson Street,53.48674,-2.228248
Jersey Street,53.48298,-2.229298
Jersey Street,53.48302,-2.229795
Stevenson Square,53.48267,-2.234329
St Peter's High School,53.46003,-2.192169
Stanley Grove,53.45906,-2.191367
Penketh Avenue,53.45914,-2.188039
Penketh Avenue,53.45918,-2.187195
Bourton Drive,53.45995,-2.184262
Fernhill Drive,53.46011,-2.182982
Broom Lane,53.44559,-2.181776
Broom Lane,53.4453,-2.18316
Levenshulme Library,53.44524,-2.185222
Levenshulme Library,53.44537,-2.185313
Cardus Street,53.44499,-2.19034
Cardus Street,53.44491,-2.190761
Ebsworth Street,53.51397,-2.197526
Wellington Street,53.46052,-2.169836
Wellington Street,53.46087,-2.172277
Whitwell Way,53.46164,-2.175398
Sunny Brow Road,53.46194,-2.17808
Chatsworth Road,53.46203,-2.178593
Belle Vue,53.46311,-2.182001
Belle Vue,53.46317,-2.183131
Belle Vue,53.463037,-2.183929
Pottery Lane,53.46938,-2.194938
Clowes Street,53.46912,-2.195901
Woodfall Close,53.468918,-2.197425
Kempley Close,53.46877,-2.197903
Kelsall Street,53.4685,-2.19983
Kelsall Street,53.4682,-2.201004
Dean Lane,53.50288,-2.182277
Droylsden Road,53.50286,-2.180996
Droylsden Road,53.50335,-2.179113
Rochdale Canal,53.482464,-2.228708
Ancoats Clinic,53.482325,-2.22141
Ancoats Clinic,53.48238,-2.220916
Butler Street,53.48507,-2.215219
Butler Street,53.48476,-2.216121
Cambrian Street,53.48586,-2.213414
Cambrian Street,53.48653,-2.212107
Bradford Inn,53.48727,-2.210031
Varley Street,53.48787,-2.208888
Saxon Street,53.48845,-2.207248
Saxon Street,53.48891,-2.206407
Hulme Hall Lane,53.49014,-2.203594
Hulme Hall Lane,53.49022,-2.203851
Lord North Street,53.49179,-2.205546
Bradford Road,53.49077,-2.204079
Oldham Road,53.49465,-2.209615
Oldham Road,53.49548,-2.209875
Queens Road,53.49521,-2.212044
Varley Street,53.49442,-2.215025
Varley Street,53.49375,-2.216197
Fir Street,53.49276,-2.218333
New Allen Street,53.4915,-2.219231
Naylor Street,53.49096,-2.220207
Naylor Street,53.48991,-2.22091
Butler Street,53.48915,-2.222353
Butler Street,53.48869,-2.222502
Oldham Road,53.48789,-2.223085
Holland Street,53.48631,-2.218571
Royal Mail Office,53.4874,-2.226428
Royal Mail Office,53.48734,-2.225991
Thompson Street,53.4863,-2.228864
Old Mill Street,53.48021,-2.2241
Old Mill Street,53.48043,-2.22389
Great Ancoats Street,53.479809,-2.22137
Great Ancoats Street,53.4799,-2.221461
New Islington Metrolink Stop,53.48119,-2.218183
New Islington Metrolink Stop,53.4814,-2.218078
Pollard Street,53.48238,-2.216983
Carruthers Street,53.48218,-2.216289
Holt Town Metrolink Stop,53.48273,-2.211771
Holt Town Metrolink Stop,53.48281,-2.212525
Hillkirk Street,53.48227,-2.208318
Councillor Street,53.48216,-2.207097
Darley Street,53.48176,-2.205633
Carfax Street,53.46315,-2.169982
Etihad Stadium,53.48161,-2.202498
Etihad Stadium,53.481734,-2.201907
Grey Mare Lane,53.48147,-2.196923
Velopark Metrolink Stop,53.48204,-2.195629
Phillips Park,53.48689,-2.19844
Etihad Campus,53.48521,-2.197829
Briscoe Lane,53.4893,-2.2005
Philips Park,53.48776,-2.199634
Philips Park,53.490341,-2.200579
Philips Park,53.49052,-2.200582
Riverpark Road,53.491968,-2.19708
Riverpark Road,53.49212,-2.196957
Grimshaw Lane,53.492986,-2.194726
Grimshaw Lane,53.4936,-2.193452
Ten Acres Lane,53.49415,-2.191902
Ten Acres Lane,53.49502,-2.190127
Crayford Road,53.49557,-2.188592
Hallam Road,53.496855,-2.185726
Scotland Hall Road,53.49729,-2.18456
Scotland Hall Road,53.4977,-2.183868
Wellpark Walk,53.49889,-2.180737
Crawford Street,53.4991,-2.180467
All Saints Church,53.49977,-2.178706
Great Newton Street,53.5007,-2.179675
Great Newton Street,53.500898,-2.180374
Oldham Road,53.50214,-2.18348
Dean Lane,53.50239,-2.184944
Newton Heath Post Office,53.50216,-2.188305
Newton Heath Post Office,53.501894,-2.18954
Thorp Road,53.501311,-2.194437
Thorp Road,53.50117,-2.193848
Ten Acres Lane,53.50047,-2.19689
Ten Acres Lane,53.49976,-2.197972
Baltimore Street,53.49913,-2.200698
Grimshaw Lane,53.49855,-2.202414
Grimshaw Lane,53.49791,-2.203858
Queens Road,53.49615,-2.209833
Queens Road,53.49606,-2.210074
Alan Turing Way,53.48127,-2.196168
City Football Academy,53.482676,-2.190102
City Football Academy,53.482892,-2.189756
North Road,53.48333,-2.185328
Tartan Street,53.48608,-2.189288
Ravensbury School,53.48642,-2.189305
Ravensbury School,53.486917,-2.18809
Pioneer Street,53.48731,-2.186506
Tartan Street,53.48742,-2.184426
Tartan Street,53.48722,-2.184139
Clayton Library,53.48493,-2.182954
Clayton Library,53.4846,-2.182606
North Road,53.483937,-2.182648
Ashton New Road,53.48381,-2.18533
Clayton Street,53.48431,-2.182951
Clayton Hall Road,53.4848,-2.180557
Vale Street,53.48503,-2.179006
Vale Street,53.48542,-2.177546
Folkestone Road,53.48569,-2.173327
Folkestone Road,53.485862,-2.172268
Edge Lane,53.48595,-2.17039
Edge Lane,53.48609,-2.169787
Edge Lane Metrolink Stop,53.48117,-2.168788
Aldi,53.48151,-2.170206
Aldi,53.48148,-2.17105
Schofield Street,53.482097,-2.174609
Schofield Street,53.48205,-2.175482
Canberra Street,53.48235,-2.176704
Clayton Hall Metrolink Stop,53.48269,-2.180443
Clayton Hall Metrolink Stop,53.48302,-2.18186
North Road,53.48347,-2.185374
Oldham Road,53.49611,-2.211883
Sedgeford Road,53.49786,-2.213475
Sedgeford Road,53.4985,-2.214458
Monsall Street,53.49918,-2.214823
Monsall Street,53.5005,-2.216126
Manchester Communication Academy,53.50231,-2.217613
Queens Road,53.50013,-2.214948
Ridgewood Avenue,53.50091,-2.212993
Monsall Metrolink Stop,53.50169,-2.210479
Monsall Metrolink Stop,53.50186,-2.210253
Monsall Road,53.50256,-2.207875
Upper Monsall Street,53.50265,-2.206308
Northampton Road,53.50161,-2.205518
Monsall Road,53.50176,-2.203906
Business Park,53.502513,-2.201212
Business Park,53.50275,-2.200835
Thorp Road,53.50392,-2.196891
Thorp Road,53.50478,-2.19498
Hugo Street,53.506729,-2.193591
Hugo Street,53.50734,-2.192911
Brendon Avenue,53.50891,-2.191833
Brendon Avenue,53.5091,-2.191502
Lightbowne Road,53.50474,-2.195915
Lightbowne Road,53.504977,-2.196138
Holmfield Avenue,53.50645,-2.200657
Holmfield Avenue,53.50698,-2.201594
Potters Lane,53.50811,-2.203711
Potters Lane,53.50803,-2.203363
Amos Street,53.50926,-2.205329
Amos Street,53.50917,-2.204952
Willow Bank,53.50984,-2.209162
Hemmington Drive,53.50983,-2.212299
Brewster Street,53.51,-2.21524
Carisbrook Street,53.50928,-2.215839
The Shiredale,53.50727,-2.216764
The Shiredale,53.507,-2.216702
Grangewood Drive,53.506041,-2.21705
Piccadilly Rail Station,53.47623,-2.22958
Piccadilly Rail Station,53.476412,-2.230302
Mancunian Way,53.47552,-2.221257
Mancunian Way,53.4756,-2.220941
Chancellor Lane,53.47534,-2.215456
Rondin Road,53.47491,-2.211084
Rondin Road,53.47513,-2.2119
Claribel Street,53.47484,-2.209337
Gorton Road,53.4749,-2.207785
Stainforth Street,53.47446,-2.202043
Stainforth Street,53.47456,-2.201561
Kay Street,53.47428,-2.199481
Pottery Lane,53.47407,-2.195698
Ashton Old Road,53.47475,-2.194631
St Brigid's School,53.4782,-2.196124
Albert Street,53.47928,-2.196912
Ashton New Road,53.48093,-2.197417
Leisure Centre,53.4768,-2.194791
Alan Turing Way,53.47426,-2.193394
Clayton Lane South,53.47387,-2.190077
Clayton Lane South,53.47393,-2.188677
Crossley House,53.47368,-2.186747
Wood Street,53.47376,-2.185632
Welcomb Street,53.47349,-2.183462
Greenside Street,53.47356,-2.181895
Greenside Street,53.47331,-2.180583
Westlake Street,53.47333,-2.177691
Victoria Street,53.47309,-2.175656
Victoria Street,53.473174,-2.174689
Louisa Street,53.47294,-2.171588
Lees Street,53.47303,-2.168876
Lees Street,53.47286,-2.168243
Morrisons,53.47298,-2.166029
Ashton Old Road,53.47319,-2.163288
Ashton Old Road,53.47374,-2.163124
Bridge Street,53.476505,-2.163075
Grosvenor Street,53.47222,-2.228426
Ardwick Green Park,53.47182,-2.226436
Ardwick Green Park,53.47123,-2.225031
Apollo,53.46982,-2.220746
Apollo,53.46978,-2.221077
Devonshire Street,53.46903,-2.217186
Hyde Road Bus Depot,53.46855,-2.213674
Devonshire Street,53.46879,-2.215076
Hyde Road Bus Depot,53.4684,-2.213989
Stagecoach Depot,53.46809,-2.211894
Bennett Street,53.468009,-2.211358
Bennett Street,53.46793,-2.210312
Clowes Street,53.46711,-2.206466
Clowes Street,53.46665,-2.203226
Redgate Lane,53.46597,-2.200195
Pottery Lane,53.46573,-2.197527
Birch Street,53.46478,-2.193712
Boundary Street,53.46474,-2.192733
Belle Vue Street,53.46396,-2.189611
Belle Vue Street,53.46412,-2.189266
Hyde Road,53.46419,-2.188227
Hyde Road,53.46457,-2.188921
Gorton Brook School,53.46682,-2.191236
Birch Street,53.4677,-2.191827
Gorton Lane,53.46838,-2.192508
Ashton Old Road,53.473735,-2.19422
Ashburys Station,53.47156,-2.194391
Gorton Road,53.47068,-2.19395
Gardner Street,53.4687,-2.190808
Gardner Street,53.46853,-2.189195
Gorton Monastery,53.4681,-2.18722
Gorton Monastery,53.46783,-2.186435
Preston Street,53.46749,-2.181749
Preston Street,53.46755,-2.181162
Peacock Close,53.46656,-2.177075
Peacock Close,53.46655,-2.176593
Borwell Street,53.46544,-2.173998
Borwell Street,53.46547,-2.173697
Gorton Post Office,53.46331,-2.171609
Gorton Post Office,53.46331,-2.171383
Carfax Street,53.46321,-2.170208
Carberry Road,53.46427,-2.169414
Pinnington Road,53.46588,-2.170023
Pinnington Road,53.46613,-2.17034
Reed Street,53.4678,-2.170979
Reed Street,53.46804,-2.17092
Cornwall Street,53.47058,-2.171608
Cornwall Street,53.47068,-2.171609
Lees Street,53.47128,-2.166429
Lees Street,53.47136,-2.166505
Fairfield Road,53.47276,-2.162292
Fairfield Road (E),53.47276,-2.161945
Fairfield Road,53.47291,-2.162353
Gransmoor Road,53.47282,-2.157727
Ashton Old Road,53.472269,-2.159546
Ashton Old Road,53.47204,-2.159457
Courier Street,53.46968,-2.158981
Courier Street,53.46944,-2.15901
Sandown Street,53.46737,-2.158008
Sandown Street,53.46712,-2.157736
Vine Street,53.46648,-2.159842
Vine Street,53.466353,-2.160232
Lees Street,53.466,-2.163125
Lees Street,53.4661,-2.163908
High Bank,53.46435,-2.165152
High Bank,53.46423,-2.165226
Royal Oak,53.463468,-2.166643
Royal Oak,53.463477,-2.166865
Ashton Old Road,53.47449,-2.216431
Ashton Old Road,53.47425,-2.216595
Ashton Old Road,53.47574,-2.217597
Every Street,53.47809,-2.219809
Droylsden Road,53.50038,-2.178015
Droylsden Road,53.50025,-2.17809
Surbiton Road,53.49715,-2.183851
Rosebank Road,53.49574,-2.182156
Rosebank Road,53.49524,-2.181792
Amos Avenue,53.49429,-2.180778
Amos Avenue,53.49394,-2.180611
Ramsgate Road,53.49399,-2.178818
Ramsgate Road,53.49429,-2.17796
Culcheth Lane,53.49479,-2.176123
Culcheth Lane,53.49514,-2.17537
Culcheth Gates,53.49713,-2.175514
Daisy Bank,53.497636,-2.175894
Deal Close,53.49811,-2.172308
Culcheth Lane,53.49784,-2.175005
Culcheth Lane,53.49773,-2.17514
Droylsden Road,53.4982,-2.171404
All Saints School,53.49921,-2.177423
Church Avenue,53.49925,-2.17731
Loring Street,53.49975,-2.175842
Loring Street,53.49979,-2.175646
Brookdale Park,53.49869,-2.171993
Brookdale Park,53.49867,-2.171677
Marguerita Road,53.49741,-2.169019
Brookdale Park,53.49678,-2.167313
Brookdale Park,53.49663,-2.167192
Brookdale Park,53.49649,-2.167734
Elsma Road,53.49474,-2.166792
Elsma Road,53.49446,-2.16664
The Bay Horse,53.491871,-2.165606
Fairfield Avenue,53.47262,-2.151489
Rosina Street,53.47268,-2.154939
Gransmoor Road,53.47272,-2.15842
Jessop Street,53.46224,-2.168864
Hyde Road,53.46057,-2.168465
Hyde Road,53.46246,-2.171259
Gorton Shopping Centre,53.46252,-2.174392
Gorton Shopping Centre,53.46267,-2.173294
Reddish Lane,53.45844,-2.161439
Tanyard Brow,53.459304,-2.163228
Far Lane,53.45974,-2.166821
Debdale Park,53.457273,-2.160109
Athol Street,53.45505,-2.158746
Debdale Park,53.45807,-2.159374
Clumber Road,53.45782,-2.155006
Clumber Road,53.45775,-2.156768
Thornley Park,53.45761,-2.153137
Thornley Park,53.45775,-2.152385
Northwold Drive,53.52694,-2.180767
Baltimore Street,53.49915,-2.200125
Caversham Drive,53.511898,-2.209143
Caversham Drive,53.51094,-2.209454
Church Lane,53.510522,-2.209783
New Moston Shops,53.51564,-2.161053
Hazeldene Road,53.51651,-2.161207
Hawthorn Road,53.51712,-2.161134
Hawthorn Road,53.51785,-2.161605
New Moston Junior School,53.51949,-2.163979
New Moston Junior School,53.518778,-2.163247
Broadway,53.52065,-2.165718
Leisure Centre,53.52059,-2.166426
Annesley Road,53.51933,-2.167764
Leisure Centre,53.52075,-2.166683
Pennine Close,53.53063,-2.198343
Kirkway,53.53028,-2.196877
Kirkway,53.5302,-2.194976
Cartmel Cout,53.5298,-2.191761
Ryderbrow Road,53.45703,-2.17312
Ryderbrow Road,53.45703,-2.17312
Ryderbrow Road (playing field - Ebd),53.45694,-2.171568
Ryderbrow Road (playing field),53.45694,-2.171568
Northmoor Road (Nbnd),53.45621,-2.193266
Kirkmanshulme Lane (New Extension),53.46411,-2.197324
Kirkmanshulme Lane (New Extension),53.46411,-2.197324
Elmsworth Avenue,53.44227,-2.184607
Northfield Road,53.51971,-2.158158
Northfield Road,53.51752,-2.156023
Belgrave Road,53.515925,-2.158461
Belgrave Road,53.51597,-2.158581
White Moss Road(Wbd)opp.EB1163(to def.rte),53.52627,-2.211777
Palmerston Street (to define route),53.48036,-2.211428
Palmerston Street (to define route),53.48036,-2.211428
Fernclough Road(Sbd)opp.EB3369(to def.rte),53.50645,-2.21685
Monsall Road,53.5056,-2.211509
Monsall Road,53.5056,-2.211509
Carruthers St(Nbd)opp.EB3245(to def.rte),53.48232,-2.217058
Tartan Street (Ebnd),53.48687,-2.188463
Tartan Street (Wbnd),53.48718,-2.186641
Greenside St(Wbd)opp EB1463 (to def rte),53.47864,-2.184192
Melland Road (Ebd) opp EB0671 (to def rte),53.45392,-2.17773
Melland Road (to def route),53.45399,-2.175065
Broom Lane,53.44398,-2.182025
Averill Street,53.49911,-2.172734
Averill Street,53.49911,-2.172734
Hugo Street,53.506246,-2.190912
Halliford Road,53.50594,-2.189935
Hugo Street,53.506366,-2.190804
Hugo Street,53.50686,-2.192803
Aytoun Street (w/bnd)to def rte,53.48002,-2.236063
Bluestone Road (to define route),53.51093,-2.19531
Bluestone Road (to define route),53.51093,-2.19531
Fold Street,53.51171,-2.193263
Fold Street,53.51171,-2.193263
Hinde Street,53.51254,-2.195182
Hinde Street,53.51254,-2.195182
Worsley Avenue,53.51492,-2.196836
Worsley Avenue,53.51497,-2.196761
Oak Bank Avenue,53.516438,-2.199451
Oak Bank Avenue,53.51645,-2.197824
Gill Street,53.516362,-2.201314
Gill Street,53.51673,-2.201339
Hodge Street,53.516048,-2.202362
Hodge Street,53.516,-2.201637
Lewis Avenue,53.516304,-2.205996
Lewis Avenue,53.51621,-2.203855
Dalbeattie Street,53.515276,-2.209697
Parkmount Road,53.51662,-2.21001
Moston Lane (to def route),53.51377,-2.21072
Moston Lane,53.51377,-2.21072
Euston Avenue,53.525493,-2.194476
Grange Park Road,53.52621,-2.195033
Euston Avenue,53.525557,-2.194637
Euston Avenue,53.525,-2.194621
Booth Hall Road,53.524447,-2.192946
Booth Hall Road (E Of Euston Ave),53.52435,-2.190741
Pilkington Road,53.523568,-2.190644
Pilkington Road,53.52338,-2.190571
Dale Street (to define route),53.48186,-2.234385
Newton Street (to define route),53.48086,-2.234274
Newton Street,53.48086,-2.234274
Chatham Street (to define route),53.47948,-2.23493
Manchester High School for Girls,53.44751,-2.222934
Manchester High School For Girls,53.44748,-2.222798
Market (To Def Rte),53.45621,-2.201986
Market (To Def Rte),53.45621,-2.201986
Parkfield Road North,53.51694,-2.157303
Parkfield Road North,53.51694,-2.157303
Eastwood Road,53.51774,-2.158271
Eastwood Road,53.51774,-2.158271
Gorton Education Village,53.450845,-2.17436
St Peters R.C. Lower School,53.45145,-2.173504
Devonshire Street North (Sh Bnd) Def rte,53.4696,-2.215728
Devonshire Street North,53.4696,-2.215728
York Street (to define route),53.48083,-2.240678
High Street (to define route),53.48253,-2.239437
Elmsworth Avenue,53.4421,-2.184696
Lightbowne Road (to define route),53.51567,-2.18292
Lightbowne Road,53.51567,-2.18292
Abbey Hey Lane,53.468281,-2.155843
Ackroyd Street,53.46882,-2.156206
Wright Robinson Sports College,53.4658,-2.15209
Wright Robinson High School,53.46678,-2.153984
Stovell Avenue (northbound),53.45013,-2.190363
Kirkmanshulme Lane,53.45953,-2.195375
Kirkmanshulme Lane,53.45953,-2.195375
Folkestone Road West,53.48767,-2.178248
Folkestone Road West,53.48767,-2.178248
Pembridge Road,53.52862,-2.202014
Pembridge Road,53.52859,-2.202044
Levenshulme Road(Nthbd)opp.EB0662(def.rte),53.45789,-2.173515
Fountain Street (to define route),53.4808,-2.240859
Ten Acres Lane (to define route),53.49731,-2.193996
Ten Acres Lane (Nth Of Briscoe La),53.49731,-2.193996
Nigel Road,53.50868,-2.201406
Nigel Road,53.50868,-2.201406
Lily Lane (to define route),53.51044,-2.197374
Lily Lane,53.51044,-2.197374
Campus Internal Road,53.44604,-2.215292
Owens Park Campus Internal Road,53.44604,-2.215292
St Peter's Upper RCHS,53.47454,-2.158065
St Peter'S Upper Rchs     (Gransmoor Road),53.47454,-2.158065
Wellington Road (to def rte),53.44219,-2.22283
Wellington Road (to def rte),53.44219,-2.22283
Moston Lane East,53.51624,-2.161146
Moston Lane East,53.51624,-2.161146
Hazeldene Road,53.51663,-2.162641
Hazeldene Road,53.51695,-2.163682
Heppleton Road,53.51842,-2.168394
Heppleton Road,53.51842,-2.168394
Warbeck Road (To define route),53.52173,-2.168965
Warbeck Road (To Define Route),53.52173,-2.168965
Worsley Avenue,53.51414,-2.195913
Worsley Ave (Ben Brierley),53.51419,-2.196215
Kingsway (to def rte),53.42065,-2.212245
Pottery Lane (to define route),53.46687,-2.195333
Pottery Lane (to define route),53.46687,-2.195333
Car Park (To define route),53.46937,-2.217761
Ducie Street,53.47922,-2.231915
Clarence Road,53.4575,-2.206299
Clarence Road,53.4575,-2.206299
Devonshire Street South,53.46513,-2.218462
Devonshire Street South,53.46513,-2.218462
Booth Hall Road,53.524602,-2.19293
Sedgeford Road,53.498709,-2.212665
Queen's Road,53.49814,-2.213597
St Matthew's RC High School,53.51812,-2.17812
St Matthew's RC High School,53.51812,-2.17812
Store Street (to define route),53.47847,-2.230193
Store Street,53.47847,-2.230193
Great Ancoats St(to def rte),53.4809,-2.224209
Great Ancoats Street,53.4809,-2.224209
Viaduct Street (to def route),53.47993,-2.212466
Viaduct Street,53.47993,-2.212466
Viaduct Street (to define route),53.47884,-2.211526
Viaduct Street,53.47884,-2.211526
Aden Close,53.47807,-2.212848
Aden Close,53.47807,-2.212848
Ashlar Drive,53.47734,-2.211353
Ashlar Drive,53.47734,-2.211353
Viaduct Street,53.47661,-2.210972
Viaduct Street,53.47661,-2.210972
Rylance Street (to def.jct),53.48021,-2.205792
Rylance Street  (To Def.Jct),53.48021,-2.205792
Myrtle Street,53.47759,-2.20489
Myrtle Street,53.47747,-2.204875
Blackrock Street,53.47694,-2.203501
Blackrock Street,53.47694,-2.203666
Metcombe Way,53.476456,-2.202694
Manipur Street,53.47649,-2.20261
Charlesworth Street,53.47694,-2.20207
Charlesworth Street,53.47694,-2.202009
Siam Street,53.47747,-2.202614
Siam Street,53.47747,-2.202614
Charlesworth Street,53.478293,-2.201764
Hinkley Street,53.47828,-2.20307
Grey Mare Lane (to define route),53.47637,-2.194111
Grey Mare Lane (to define route),53.47637,-2.194111
Stuart Street,53.48461,-2.194134
Stuart Street,53.48461,-2.194134
Archer Street,53.4863,-2.194067
Archer Street,53.4863,-2.194067
Fairclough Street,53.48693,-2.194145
Fairclough Street,53.48693,-2.194145
Clayton Street,53.48688,-2.18355
Clayton Street,53.48688,-2.18355
Canberra Street,53.48265,-2.178122
Canberra Street,53.48265,-2.178122
Vale Street,53.48659,-2.178847
Vale Street,53.48659,-2.178847
Folkestone Road,53.48687,-2.173498
F.Rd West),53.48687,-2.173498
Folkestone Road East,53.48818,-2.169811
Folkestone Road East,53.48818,-2.169811
Assheton Road,53.49535,-2.17105
Assheton Road,53.4953,-2.171392
Eldridge Drive,53.500511,-2.194328
Eldridge Drive,53.5013,-2.192974
Eldridge Drive,53.5007,-2.194479
Eldridge Drive,53.49988,-2.194324
Bower Street,53.497862,-2.198175
Bower Street,53.49664,-2.200957
Grimshaw Lane,53.49546,-2.200304
Grimshaw Lane,53.4954,-2.200288
Lord North Street,53.49403,-2.20194
Lord North Street,53.49403,-2.20194
Sandal Street,53.48977,-2.206863
Sandal Street,53.48977,-2.206863
Varley Street,53.48872,-2.210384
Varley Street,53.4887,-2.210203
James Street,53.49112,-2.213456
James Street,53.49112,-2.213456
Berkshire Road,53.49053,-2.215035
Berkshire Road,53.49053,-2.215035
Winstanley Road,53.49112,-2.216244
Winstanley Road,53.49112,-2.216244
Naylor Street,53.4894,-2.218195
Naylor Street,53.4894,-2.218195
Mellor Street,53.48896,-2.217514
Mellor Street,53.48896,-2.217514
Butler Street (Sth of Mellor Street),53.4872,-2.219615
Butler Street (Sth of Mellor Street),53.4872,-2.219615
Woodward Street,53.48553,-2.219983
Woodward Street,53.48553,-2.219983
Weybridge Road,53.48368,-2.22136
Weybridge Road,53.48368,-2.22136
Great Ancoats Street,53.47879,-2.222133
Great Ancoats Street,53.47879,-2.222133
Travis Street,53.47705,-2.225273
Travis Street,53.47705,-2.225273
Alan Turing Way (to def rte),53.47502,-2.19415
Bank Street,53.48693,-2.190015
Bank Street,53.48693,-2.190015
Clayton Street,53.48856,-2.185034
Clayton Street,53.48856,-2.185034
Hartington Drive,53.48816,-2.181867
Hartington Drive,53.48816,-2.181867
Grange Park Road (To Def Rte),53.52401,-2.199835
Grange Park Road,53.52401,-2.199835
Broad Moss Drive,53.52728,-2.190407
Broad Moss Drive,53.52718,-2.190166
Grange Park Road,53.52559,-2.196886
Co-op Academy North Manchester,53.52741,-2.188311
Hall Moss Road,53.52674,-2.195036
Grange Park Road,53.52674,-2.19404
Grange Park Road,53.52674,-2.19404
The Fairway,53.513674,-2.174467
The Fairway,53.51755,-2.172191
Barlow Road,53.445951,-2.179164
Molyneux Road,53.44592,-2.179278
The Fairway,53.5132,-2.175038
The Fairway,53.5132,-2.175038
Northfield Road,53.519809,-2.157917
Northfield Road,53.5217,-2.159809
Moston Lane East,53.51357,-2.163141
Moston Lane East,53.51357,-2.163141
Berry Brow,53.49256,-2.167748
Berry Brow,53.49256,-2.167748
Moston Ln(to def route),53.51331,-2.208546
Moston Ln(to def route),53.51331,-2.208546
Barlow Road,53.44565,-2.174007
Marquis Street,53.44565,-2.174007
Williams Road,53.507981,-2.18236
The Fairway,53.50872,-2.176754
The Fairway,53.513655,-2.174935
The Fairway,53.5086,-2.178035
Williams Road,53.508116,-2.182451
Williams Road,53.50757,-2.183157
Piccadilly Station Approach (to def rte),53.47796,-2.231953
Piccadilly Station Approach,53.47796,-2.231953
Ryderbrow Road (Wbd),53.45713,-2.168256
Ryderbrow Road,53.45713,-2.168256
Highgate Crescent,53.45607,-2.169743
Highgate Crescent,53.45607,-2.169743
Swan Street (to define route),53.48502,-2.233513
Assheton Road,53.49522,-2.17097
Berry Brow,53.49374,-2.167964
Assheton Road,53.49509,-2.174662
Assheton Road,53.49509,-2.174662
Kirkmanshulme Lane (SE Bd def rte),53.45996,-2.197485
Kirkmanshulme Lane (to define route),53.45996,-2.197485
Mancunian Way (West - to define route),53.47401,-2.220918
Rose Bank Road,53.49493,-2.183871
Rose Bank Road,53.49493,-2.183871
Ten Acres Lane,53.49367,-2.189669
Ten Acres Lane,53.49367,-2.189669
Newcliffe Road,53.53074,-2.201873
Newcliffe Road,53.53074,-2.201873
Amesbury Road,53.5305,-2.205191
Amesbury Road,53.5305,-2.205131
Benmore Road,53.52827,-2.20423
Benmore Road,53.52776,-2.203247
Stanley Grove,53.45694,-2.199038
Stanley Grove,53.45694,-2.199038
Oxford Place,53.45773,-2.222279
Crowcroft Road,53.45178,-2.196363
Crowcroft Road To Define Route,53.45178,-2.196363
Thornbury Way,53.46252,-2.179122
Thornbury Way To Define Route.,53.4625,-2.179092
Whitwell Way,53.46239,-2.17632
Halliford Road,53.504524,-2.191949
Thorpebrook Road,53.50501,-2.192976
Parsonage Road,53.43385,-2.212792
Lever Street (to define route),53.48133,-2.235482
Millbank Street,53.47996,-2.226343
Millbank Street,53.47996,-2.226343
Ducie Street (to define route),53.48015,-2.229373
Dale Street (Sbd define route),53.48016,-2.232357
Dale Street (to define route),53.48016,-2.232357
Stockport Road,53.43689,-2.185065
Gransmoor Road,53.47341,-2.158181
M60 (To define route),53.53185,-2.196417
M60,53.53185,-2.196417
Jocelyn Street,53.500518,-2.208435
Jocelyn Street,53.50076,-2.208801
Emmett Street East,53.49978,-2.20574
Emmett Street East,53.49992,-2.205495
Dale Street (to define route),53.48241,-2.235624
Church Street (to define route),53.48297,-2.237676
Thorp Road,53.5029,-2.194022
Great Ancoats Street (to define route),53.48427,-2.232018
Parkhouse Street,53.47607,-2.188475
Parkhouse Street,53.47607,-2.188475
Parkhouse Street,53.47497,-2.182655
Parkhouse Street,53.47497,-2.182655
Brook Green,53.45684,-2.163135
Brook Green,53.45684,-2.163135
Queensway,53.41488,-2.215962
Queensway,53.41488,-2.215797
Nutsford Vale,53.45715,-2.190334
Nutsford Vale,53.45715,-2.190334
Monsall Road,53.50169,-2.205564
Monsall Road,53.50169,-2.205564
Hyde Road,53.46204,-2.178201
Kingsway,53.44332,-2.202331
Kingsway,53.44332,-2.202331
Sportcity,53.48264,-2.204206
Sportcity,53.48287,-2.202384
Devonshire Street North (Nth Bd) - Def rte,53.47113,-2.215766
Kirkmanshulme Lane (NW bd def rte),53.45966,-2.195677
Abbey Hey Lane,53.468209,-2.155978
Dale Street (Nbd - to def rte),53.4794,-2.231719
Amesbury Road,53.52883,-2.205273
Halliford Road,53.504461,-2.191753
Jocelyn Street,53.500453,-2.208611
Emmett Street East,53.499944,-2.205682
The East Manchester Academy,53.47842,-2.197782
Grimshaw Lane,53.4954,-2.200333
Bower Street,53.498024,-2.198356
FC United,53.51697,-2.181524
Old Hall Lane,53.44723,-2.218656
First Bus Depot,53.45102,-2.221672
St Augustine Street,53.499978,-2.211662
St Augustine Street,53.499862,-2.211465
St Peter's High School,53.459006,-2.191924
Worcester Street,53.53519,-2.138421
Brookfold,53.51175,-2.163723
Limeditch Road,53.51462,-2.143647
Limeditch Road,53.51514,-2.14386
Broadway,53.52541,-2.163489
Featherstall Road North,53.54301,-2.130101
Railway Bridge,53.529756,-2.143619
Manchester Road,53.527,-2.137338
Derby Street,53.528655,-2.141168
Albert Street,53.527262,-2.138024
Derby Street,53.5284,-2.14048
Pembroke Street,53.53799,-2.123039
Oldham Way,53.53811,-2.121124
Lee Street,53.53703,-2.122735
Lee Street,53.5369,-2.123414
Coppice Street,53.53607,-2.126414
Stockfield Road,53.54184,-2.138518
Stockfield Road,53.54184,-2.138518
Old Lane,53.53145,-2.141727
Medlock Road,53.50247,-2.139007
Morrisons,53.522391,-2.153389
Berkeley Avenue,53.52582,-2.155767
Mainway East,53.5386,-2.175218
Stagecoach Depot,53.535631,-2.175056
Moston Road,53.5328,-2.174787
Streetbridge Inn,53.51483,-2.141038
Streetbridge Inn,53.51496,-2.140949
Milne Street,53.53603,-2.133248
Oldham College,53.54179,-2.119716
Oldham College,53.54191,-2.119414
Westwood Metrolink Stop,53.542408,-2.125678
Featherstall Road North,53.54268,-2.128199
Main Road,53.54324,-2.1322
Hollinwood Avenue,53.522743,-2.16817
Broadway,53.5208,-2.165673
Moston Road,53.53318,-2.175106
Lime Lane,53.51653,-2.136324
Fields New Road,53.53066,-2.145798
Middleton Junction,53.54072,-2.174096
Thompson Lane,53.53168,-2.146164
Oxford Street,53.53416,-2.135958
Devon Mill,53.5229,-2.13565
NOV Factory,53.53009,-2.175606
NOV Factory,53.52885,-2.175646
Co-op Academy Failsworth,53.50777,-2.147348
James Street,53.5104,-2.15265
Westminster Road,53.50895,-2.139752
Cutler Hill Road,53.50841,-2.138137
Union Street,53.53989,-2.114791
Turf Lane,53.52522,-2.147062
Laycock Crescent,53.50649,-2.153028
Day Drive,53.50378,-2.156923
Lee Street,53.5329,-2.114968
Broadgate,53.5355,-2.16902
Broadgate,53.52967,-2.165889
Laycock Crescent,53.50629,-2.153569
Brown Cow,53.509,-2.162988
Brown Cow,53.50898,-2.162837
Failsworth Metrolink Stop,53.51025,-2.163069
Failsworth Metrolink Stop,53.51043,-2.163582
Oldham Road,53.508,-2.163301
Oldham Road,53.50768,-2.162637
Grimshaw Lane,53.53955,-2.169428
Mare & Foal,53.50721,-2.160584
Mare & Foal,53.50712,-2.160659
Henry Street,53.50894,-2.155992
Henry Street,53.509016,-2.156022
Day Drive,53.50424,-2.156562
Wyndale Drive,53.49785,-2.157112
The Windmill,53.50053,-2.157031
Post Office,53.50135,-2.156974
Post Office,53.50248,-2.157099
Park Avenue,53.51149,-2.169874
Park Avenue,53.51096,-2.169495
Morton Street,53.50455,-2.175093
Gateway Crescent,53.53224,-2.168524
Hollinwood Metrolink Stop,53.519931,-2.14853
Hollinwood Metrolink Stop,53.519664,-2.148666
Hollins Road,53.52584,-2.119912
Hollins Road,53.52556,-2.11973
Broadgate,53.54018,-2.169461
Oasis Academy,53.51521,-2.139939
Grendon Avenue,53.52759,-2.12221
Chamber Road,53.52901,-2.123738
Chamber Road,53.5298,-2.124871
Wellington Road,53.53125,-2.126505
Regency Close,53.53151,-2.126988
Werneth Park,53.53379,-2.129756
Werneth Park,53.53355,-2.129273
Manchester Road,53.53575,-2.13198
Manchester Road,53.53608,-2.132147
Castleton Street,53.537761,-2.134159
Peak Street,53.53829,-2.13576
Civic Centre (Stop JJ),53.54207,-2.117664
Civic Centre (Stop KK),53.54205,-2.117981
Under Lane,53.52464,-2.14261
Stockfield Road,53.54176,-2.138427
Heron Street,53.5273,-2.128711
Grange Avenue,53.52779,-2.126796
Grange Avenue,53.52784,-2.126253
Frederick Street,53.52892,-2.124778
Clarence Avenue,53.529766,-2.123762
Coppice Street,53.53201,-2.120729
Windsor Road,53.53128,-2.122009
Osborne Road,53.53373,-2.124038
Osborne Road,53.53391,-2.124431
Napier Street East,53.53568,-2.126593
Dearnalay Way,53.53408,-2.138945
Oxford Street,53.53362,-2.138702
Farm Street,53.50208,-2.170349
Clive Road,53.50569,-2.161031
St Mary's Church,53.50442,-2.158206
Worcester Street,53.5351,-2.138617
Farm Street,53.50245,-2.169732
Farm Street,53.50208,-2.170183
Marlborough Drive,53.50367,-2.165501
Marlborough Drive,53.50356,-2.166284
Clive Road,53.5058,-2.161091
Clive Road,53.5058,-2.161091
Hollinwood Cemetery,53.51786,-2.13384
Middleton Junction,53.54092,-2.173583
Broadway,53.50495,-2.172984
Sixth Form College,53.5391,-2.11835
Berkeley Avenue,53.52579,-2.155903
Primary School,53.52475,-2.162491
Broadway,53.52717,-2.157703
Broadway,53.52721,-2.157507
Hollinwood Metrolink Stop,53.52017,-2.146576
Broadway,53.52623,-2.159902
Broadway,53.52604,-2.159117
Vicarage Street,53.52366,-2.13603
Petworth Road,53.539477,-2.13887
Brookfold,53.51218,-2.163498
Morrisons,53.5214,-2.152342
Morrisons,53.52153,-2.152478
Broadway,53.52722,-2.157537
Tesco,53.50819,-2.157949
Holy Family Church,53.51706,-2.135406
Clarence Avenue,53.53072,-2.122988
Brunswick Street,53.53978,-2.11467
Barn Street,53.54011,-2.117312
Barn Street,53.539999,-2.1171
Barn Street,53.54077,-2.117917
John Street,53.54073,-2.119094
John Street,53.54085,-2.119049
Barn Street,53.53987,-2.116813
West Street                           QT,53.5421,-2.117438
Central Bus Stn (Stop P)  QS,53.54216,-2.116683
Central Bus Stn (Stop N)  QS,53.54221,-2.116186
West Street                           QT,53.54204,-2.115763
Central Bus Stn (Stop J)  QS,53.54191,-2.115732
Central Bus Stn (Stop K)  QT,53.54178,-2.116019
Central Bus Stn (Stop L)  QS,53.54181,-2.116351
Central Bus Stn (Stop M)  QT,53.54187,-2.116652
Oasis Academy Oldham,53.52231,-2.129907
West Street                           QT,53.54202,-2.116215
Central Bus Stn           QS,53.54199,-2.116562
Oldham College,53.54276,-2.119054
Turning Area,53.52264,-2.129843
Barn Street,53.53999,-2.116934
Turning Area,53.52256,-2.130114
Turning Area,53.53817,-2.151859
Turning Area,53.53816,-2.15281
Turning Area,53.5383,-2.152041
Turning Area,53.53839,-2.152252
Mough Lane,53.52476,-2.163064
Westwood Metrolink Stop,53.54238,-2.12441
Colenso Street,53.52499,-2.126999
Ashton Road East,53.50835,-2.145887
Co-op Academy Failsworth,53.50769,-2.147136
Paulden Drive,53.50748,-2.148282
Broadway,53.5225,-2.166117
Broadway,53.52216,-2.164246
Scholes Drive,53.52156,-2.161589
Hollinwood Avenue,53.52226,-2.160264
Sth Chadderton School,53.52316,-2.161218
Sth Chadderton School,53.52415,-2.161976
Broadway,53.52486,-2.162702
Orchard Road,53.50766,-2.156243
School Road,53.50671,-2.15535
Tenby Road,53.52001,-2.138929
Middleton Road,53.54232,-2.128877
West Street,53.5412,-2.129266
West Street,53.54056,-2.129219
Werneth Station,53.53926,-2.129486
Werneth Station,53.53901,-2.129712
Alfred Street,53.53767,-2.129798
Alfred Street,53.53794,-2.129965
Oak Street,53.54323,-2.171842
Green Lane,53.54174,-2.172681
Moston Road,53.54063,-2.171771
Moston Road,53.54084,-2.171878
Springs Road,53.53993,-2.167347
Springs Road,53.54007,-2.164828
Foxdenton Hall Park,53.53962,-2.161039
Foxdenton Hall Park,53.53919,-2.159604
Foxdenton Hall Park,53.53676,-2.157377
Foxdenton Hall Park,53.53666,-2.156833
The Sportsman,53.53484,-2.153764
The Sportsman,53.53467,-2.15325
Derwent Drive,53.54232,-2.14892
Derwent Drive,53.54234,-2.149158
Milton Drive,53.5407,-2.149922
Milton Drive,53.53967,-2.150099
Newman RC College,53.53763,-2.15132
Newman RC College,53.53667,-2.15135
The Sportsman,53.53493,-2.152406
The Sportsman,53.53333,-2.152732
Whitegate Lane,53.5304,-2.155377
Whitegate Lane,53.53017,-2.155014
Boat & Horses,53.5286,-2.158251
Boat & Horses,53.528713,-2.157471
Mough Lane,53.525848,-2.16202
Hollinwood Avenue,53.52327,-2.164597
Stagecoach Depot,53.53637,-2.17536
Gorse Street,53.53011,-2.156462
Learning Centre,53.52235,-2.158349
Learning Centre,53.52251,-2.15844
Morrisons,53.52238,-2.152467
Long Lane,53.52442,-2.15394
The Sportsman,53.53388,-2.15204
The Sportsman,53.53364,-2.151466
Whitegate Lane,53.532,-2.150268
Whitegate Lane,53.53228,-2.150209
Butler Green,53.52989,-2.144588
Lancaster Street,53.5278,-2.147614
Lancaster Street,53.52761,-2.147688
Under Lane,53.52451,-2.142549
Under Lane,53.52454,-2.142534
Houseley Avenue,53.52487,-2.151344
Houseley Avenue,53.52486,-2.150922
Coalshaw Green Road,53.52521,-2.148072
Butler Green,53.53029,-2.14367
Turf Lane,53.52579,-2.147954
Old Lane,53.53183,-2.141005
Lincoln Street,53.53632,-2.137836
Lincoln Street,53.5364,-2.138002
Lansdowne Road,53.53832,-2.137842
Block Lane,53.53885,-2.138478
Robinson Street,53.53784,-2.142941
Robinson Street,53.53771,-2.142805
Ramsey Street,53.53386,-2.144874
Ramsey Street,53.53443,-2.144695
Thompson Lane,53.53223,-2.145728
Block Lane,53.53896,-2.137331
Arkwright Street,53.54097,-2.134773
Arkwright Street,53.54152,-2.134805
Middleton Road,53.54324,-2.134403
Lincoln Street,53.534038,-2.135686
Manchester Road,53.53491,-2.132807
Ridgefield Street,53.50626,-2.168451
Ridgefield Street,53.50629,-2.168903
Brown Street,53.50717,-2.165545
Ashton Road West,53.50779,-2.164793
Brown Cow,53.50903,-2.161827
Failsworth Liberal Club,53.509603,-2.160744
Failsworth Precinct,53.510073,-2.159344
Failsworth Pole,53.51114,-2.156995
Failsworth Pole,53.51166,-2.155519
Evening Street,53.51368,-2.152767
Evening Street,53.51365,-2.15248
Wellington Street,53.51531,-2.150315
Wellington Street,53.51521,-2.150133
Hollinwood,53.51756,-2.146673
Hollinwood,53.51838,-2.146027
Clowes Street,53.52133,-2.14287
Clowes Street,53.52174,-2.142178
Drury Lane,53.52312,-2.140749
Drury Lane,53.52465,-2.139186
Chapel Road,53.52513,-2.137875
Chapel Road,53.5264,-2.136883
Heron Street,53.52999,-2.134481
Heron Street,53.52835,-2.134974
Grange Avenue,53.53128,-2.133294
Derby Street,53.53246,-2.133041
Frederick Street,53.53574,-2.131029
Frederick Street,53.53443,-2.131448
Alfred Street,53.537,-2.1288
Alfred Street,53.53708,-2.127971
Lee Street,53.53856,-2.12458
Lee Street,53.53897,-2.12431
Merton Avenue,53.52487,-2.126637
Chamber Road,53.52688,-2.129147
Heron Street,53.52672,-2.130232
Vaal Street,53.52608,-2.13192
Vaal Street,53.52597,-2.132523
Ashton Road,53.53409,-2.11642
Kennedy Street,53.53335,-2.117942
Kennedy Street,53.53288,-2.118665
Hawksley Street,53.5256,-2.134905
Hawksley Street,53.52571,-2.135524
St Mary's Church,53.50452,-2.158131
St Mary'S Church,53.50452,-2.158131
Propps Hall Drive,53.50618,-2.160671
Copster Place,53.52518,-2.116064
Crofton Street,53.52505,-2.114555
James Street,53.51057,-2.152303
Douglas Street,53.51025,-2.14906
Douglas Street,53.50992,-2.148049
Willow Tavern,53.50846,-2.143701
Willow Tavern,53.508483,-2.144425
Ashton Road East,53.5092,-2.139301
Richmond Road,53.51255,-2.142026
Wimbledon Road,53.51368,-2.143945
Wimbledon Road,53.51365,-2.144262
Alexander Avenue,53.5121,-2.147861
Alexander Avenue,53.5122,-2.147846
Hawthorn Road,53.51977,-2.139894
Chapel Road,53.52055,-2.135356
Chapel Road,53.52123,-2.133187
Jenny Street,53.52143,-2.134349
Manchester Road,53.52517,-2.136819
Manchester Road,53.52528,-2.137046
Primrose Bank,53.53547,-2.115292
Primrose Bank,53.53515,-2.115729
Lee Street,53.53284,-2.114531
Ashton Road,53.53159,-2.114482
Wilson Street,53.530761,-2.114782
Lorne Street,53.52917,-2.115924
Gainsborough Avenue,53.52831,-2.116208
Windsor Road,53.52791,-2.116614
Hollins Road,53.52605,-2.117243
Hollins Road,53.5257,-2.117498
Frederick Street,53.52508,-2.119834
Frederick Street,53.5249,-2.120452
Garden Suburb,53.52315,-2.12188
Garden Suburb,53.52313,-2.122679
Hollins Road,53.52272,-2.123568
Hollins Road,53.52256,-2.123327
Oak Road,53.51965,-2.12377
Oak Road,53.51978,-2.123484
Acacia Road,53.51689,-2.12417
Acacia Road,53.51727,-2.123914
Limehurst School,53.51465,-2.126048
Lower Lime Road,53.51352,-2.127206
Lower Lime Road,53.51307,-2.127642
Laburnum Road,53.51148,-2.130849
Laburnum Road,53.51155,-2.131211
St Chads Crescent,53.51545,-2.125779
St Chads Crescent,53.51545,-2.125779
Pine Tree Road,53.51601,-2.129762
Pine Tree Road,53.51568,-2.12955
Roman Road,53.5178,-2.131894
Roman Road,53.51854,-2.132439
Side Street,53.51995,-2.133861
Hollins Road,53.520422,-2.134497
Oak Road,53.52159,-2.131484
Glencoe Street,53.521932,-2.130731
Glencoe Street,53.52218,-2.129404
Mill Gate,53.52255,-2.128274
Houghton Avenue,53.52266,-2.125936
Houghton Avenue,53.52281,-2.125273
Morton Street,53.50423,-2.175453
Broadway,53.50556,-2.171539
Nelson Tavern,53.4963,-2.161914
Nelson Tavern,53.49599,-2.161129
Wyndale Drive,53.49762,-2.157277
The Windmill,53.5001,-2.156698
Hollinwood,53.51776,-2.14687
Manchester Road,53.53497,-2.132159
Worcester Street,53.53375,-2.136862
Medlock Road,53.50465,-2.135773
Medlock Road,53.50479,-2.135728
Richmond Road,53.51223,-2.141965
Hollinwood Avenue,53.5237,-2.168475
Welbeck Avenue,53.52422,-2.167964
Kirby Avenue,53.52533,-2.166143
Kirby Avenue,53.52583,-2.165587
Broadway,53.52546,-2.163308
Hollinwood Avenue,53.52277,-2.164716
Long Lane,53.52411,-2.154343
Long Lane (Sbd)Opp.Ed1783(To Def.Route),53.52411,-2.154343
Paulden Drive,53.505655,-2.148969
Clough Road,53.50653,-2.149982
Paulden Drive,53.505565,-2.149165
Clough Road,53.50506,-2.14764
Stockfield Road,53.54305,-2.141963
Stockfield Road,53.54305,-2.141963
Stock Lane,53.541743,-2.141174
Stock Lane,53.54176,-2.141098
Lower Lime Road,53.51284,-2.126314
Lower Lime Road,53.51284,-2.126314
Heron Street,53.528,-2.130991
Heron Street,53.528,-2.130991
Crescent Road,53.52265,-2.163584
Crescent Road,53.52265,-2.163584
Butterworth L(Nbd)opp.ED1784(to def.rte),53.52219,-2.160324
Stock Lane,53.541798,-2.140993
Stockfield Road,53.54218,-2.138896
Stockfield Road,53.54218,-2.138896
Alder Road,53.501561,-2.151879
Alder Road,53.50074,-2.152901
Clive Road,53.50573,-2.160473
Clive Road,53.50573,-2.160473
Long Lane (Ebnd),53.52444,-2.154118
Lower Lime Road (to def.jct),53.51334,-2.127401
Lower Lime Road (To Def.Jct),53.51334,-2.127401
Oldham Sixth Form College (to def route),53.53872,-2.120114
Oldham Sixth Form College (to def route),53.53872,-2.120114
Limeside Road,53.51785,-2.131804
Frederick Street,53.53069,-2.125643
Frederick Street,53.53069,-2.125643
Radclyffe Lower School (Turning Circle),53.53666,-2.154962
Radclyffe Lower School (Turning Circle),53.53666,-2.154962
Broadway,53.5278,-2.158354
Broadway,53.5278,-2.158354
Woodall Street,53.51093,-2.158849
Old Road,53.50992,-2.162328
Landsdowne Road,53.53888,-2.136456
Landsdowne Road,53.53888,-2.136456
Ashton Road,53.50711,-2.129192
Ashton Road,53.50613,-2.131239
Cutler Hill Road,53.5074,-2.129027
Cutler Hill Road,53.5074,-2.129027
Wickentree Lane,53.51601,-2.150966
Wickentree Lane,53.51601,-2.150966
Oldham Way (to define route),53.53829,-2.119419
Oldham Way (to define route),53.53717,-2.115689
Oldham Way (to define route),53.53717,-2.115689
Lansdowne Road (to def route),53.5391,-2.139112
Wrigley Head,53.51406,-2.154608
Wrigley Head,53.51406,-2.154608
Lord Lane (northbound),53.50001,-2.156773
Paddock Lane,53.500008,-2.157678
Paddock Lane,53.49973,-2.158656
Brookdale Mews,53.502176,-2.162992
Somerset Road,53.50225,-2.162631
Brookdale Mews,53.502266,-2.163083
Coronation Road,53.50214,-2.163459
Brooks Drive,53.503287,-2.165122
Brooks Drive,53.50338,-2.164821
Marlborough Drive,53.503377,-2.16553
Marlborough Drive,53.50338,-2.16565
Lower Lime Road,53.51047,-2.129353
Coal Pit Lane,53.50932,-2.130119
Coal Pit Lane,53.50932,-2.130119
Hartshead Crescent,53.503523,-2.136205
Stamford Drive,53.50318,-2.135964
Stamford Drive,53.502598,-2.137415
Stamford Drive,53.50266,-2.137335
Ashbridge Road,53.502304,-2.13847
Ashbridge Road,53.50197,-2.138056
Medlock Road,53.50403,-2.136284
Hartshead Crescent,53.50401,-2.136253
Propps Hall Drive,53.50311,-2.168936
Propps Hall Drive,53.50311,-2.168936
Alder Road,53.503451,-2.150213
Alder Road,53.50389,-2.150274
Cornwall Street,53.53376,-2.137767
Turf Lane (Ebd),53.52528,-2.148103
Morrison's (Hollinwood),53.52168,-2.153218
Morrison's (Hollinwood),53.52168,-2.153218
Stansfield School,53.51447,-2.148336
Broadgate,53.53262,-2.168737
Broadgate,53.53262,-2.168737
Railway Road (Werneth)(to define route),53.53834,-2.128216
Tattersall Street (to define route),53.53843,-2.125953
Rochdale Road (to define route),53.54313,-2.118905
M60 (Ashton Road - to define route),53.50583,-2.131374
M60 (Ashton Road - to define route),53.50583,-2.131374
Oldham Road (to define route),53.51951,-2.142804
Oldham Road (to define route),53.51951,-2.142804
M60 (to define route),53.52774,-2.163136
M60 (to define route),53.52774,-2.163136
Jackson Street,53.50507,-2.1692
Jackson Street,53.50507,-2.1692
Albert Street,53.51695,-2.142539
Albert Street,53.51695,-2.142539
Cutler Hill,53.50895,-2.131701
Cutler Hill,53.50895,-2.131701
Knott Lanes,53.50974,-2.11572
Knott Lanes,53.50974,-2.11572
Railway Road,53.52012,-2.146591
Ashton Road,53.50456,-2.135079
Cutler Hill Road,53.50867,-2.130493
Medlock Road,53.50429,-2.135621
Cutler Hill Road,53.50872,-2.136872
Paddock Lane,53.500088,-2.157844
Somerset Road,53.500964,-2.161691
Somerset Road,53.501081,-2.161722
Marlborough Drive,53.503341,-2.165696
Clough Road,53.504378,-2.149161
Clough Road,53.504306,-2.14901
Alder Road,53.503469,-2.150454
Alder Road,53.501472,-2.151608
Alder Road,53.499993,-2.155296
Alder Road,53.500146,-2.155357
Brooks Drive,53.503171,-2.165047
Coronation Road,53.502786,-2.163884
Coronation Road,53.502705,-2.16414
Peel Street,53.54272,-2.137967
Peel Street,53.542739,-2.137792
Wilton Grove,53.45741,-2.148318
Ashwood Avenue,53.45346,-2.145397
Anson Road,53.45196,-2.143299
Dane Road,53.45107,-2.141986
Windermere Avenue,53.44978,-2.142298
Dunkirk Close,53.45,-2.143955
Balmoral Drive,53.45535,-2.1481
Gorseyfields,53.47567,-2.144886
Gorseyfields,53.47591,-2.144947
St Marys School,53.47947,-2.144567
Pearl Street,53.45589,-2.120271
Springfield Road,53.48671,-2.154689
Rivington Grove,53.47623,-2.135968
Booth Road,53.47273,-2.147708
Palm Street,53.48447,-2.168515
Derwent Street,53.48291,-2.16771
Merlyn Avenue,53.45048,-2.116959
Merlyn Avenue,53.45035,-2.117064
Audenshaw Road,53.47144,-2.123765
Sandringham Avenue,53.46989,-2.122556
Audenshaw School,53.468449,-2.119087
Audenshaw School,53.46823,-2.118649
Redwood Drive,53.46751,-2.115785
Redwood Drive,53.46733,-2.115695
Buller Street,53.47779,-2.142769
Buller Street,53.47761,-2.143205
Westway,53.4744,-2.144791
Maytree Crescent,53.46511,-2.122301
Mansfield Avenue,53.46173,-2.124264
Mansfield Avenue,53.46199,-2.124265
Leech Brook Avenue,53.46647,-2.121657
Stamford Road,53.47273,-2.124116
Ashton Moss Metrolink Stop,53.48539,-2.119451
Ashton Moss Metrolink Stop,53.48511,-2.120294
Leech Brook Avenue,53.46643,-2.121521
Gorton Crescent,53.45143,-2.130513
Canal Street,53.47837,-2.146191
Fiveways Greenside Lane,53.48376,-2.150248
North Road,53.48669,-2.169247
Windmill Lane,53.44749,-2.148464
Arnold Drive,53.48187,-2.149654
Sainsbury's,53.45486,-2.131036
Sainsbury'S Car Park,53.45506,-2.130976
Bakewell Road,53.48643,-2.165539
Sunny Bank Park,53.48412,-2.163285
Sports Field,53.48245,-2.162314
Buckingham Road,53.48278,-2.162677
Palm Street,53.48461,-2.163708
Bakewell Road,53.48639,-2.165388
Trinity Church,53.47936,-2.146662
St Martin's Church,53.48871,-2.156897
Tesco,53.47954,-2.148184
Ashton Park,53.482308,-2.12279
Shoecroft Avenue,53.450254,-2.121521
Pearl Street,53.45602,-2.120121
Edge Lane Metrolink Stop,53.480735,-2.165155
Community Centre,53.4536,-2.143997
Fairview Road,53.44815,-2.145936
Fairview Road,53.44738,-2.14762
Community Centre,53.45364,-2.143727
Denton Community College,53.46143,-2.121161
Denton Community College,53.46143,-2.121778
Denton Community College,53.45955,-2.124318
Denton Community College,53.45939,-2.123926
Belmont Avenue,53.45736,-2.123122
Palm Street,53.48436,-2.168334
Derwent Street,53.48286,-2.167544
Edge Lane Metrolink Stop,53.481694,-2.167103
Bridge Street,53.47616,-2.161943
Wheler Street,53.47754,-2.165082
Wheler Street,53.477769,-2.165234
Edge Lane Metrolink Stop,53.480231,-2.166148
Edge Lane,53.49091,-2.166626
Chatsworth Road,53.48846,-2.1663
Chatsworth Road,53.48803,-2.166359
Holly Street,53.48685,-2.168645
North Road,53.48681,-2.166188
North Road,53.48662,-2.165931
Edge Lane Metrolink Stop,53.481,-2.16487
Buxton Lane,53.48053,-2.162412
Buxton Lane,53.48051,-2.160378
Cemetery Road Metrolink Stop,53.479958,-2.154951
Cemetery Road Metrolink Stop,53.48009,-2.155132
Cemetery Road,53.47997,-2.153655
Cemetery Road,53.47972,-2.152283
Scott Road,53.47962,-2.151062
Tesco,53.4796,-2.148907
Droylsden Metrolink Stop,53.479612,-2.144553
Droylsden Metrolink Stop,53.47933,-2.144431
Williamson Lane,53.47918,-2.142457
Williamson Lane,53.47927,-2.141764
Kershaw Lane,53.47888,-2.136806
Kershaw Lane,53.47858,-2.135388
Audenshaw Metrolink Stop,53.478447,-2.133053
Audenshaw Metrolink Stop,53.47842,-2.131048
Rothbury Avenue,53.49695,-2.11579
Rothbury Avenue,53.49695,-2.11579
Newmarket Grove,53.50015,-2.115241
Newmarket Grove,53.49993,-2.115738
Daisy Nook Country Park,53.50048,-2.120564
Daisy Nook Country Park,53.50034,-2.120292
Back Lane,53.498,-2.123466
Back Lane,53.49832,-2.122834
Howarth Farm Road,53.49616,-2.125993
Howarth Farm Road,53.49617,-2.125812
Laurus Ryecroft,53.49438,-2.12959
Laurus Ryecroft,53.49432,-2.128957
Cryer Street,53.492183,-2.132116
Cryer Street,53.491687,-2.133381
Littlemoss Road,53.491146,-2.13469
Littlemoss Terminus,53.49081,-2.135126
Moorside Street,53.48869,-2.132663
Littlemoss Road,53.4881,-2.13349
James Street,53.48668,-2.136801
James Street,53.48662,-2.137192
Thornhill Road,53.48562,-2.138576
Medlock Street,53.48369,-2.141538
Oldham Street,53.48405,-2.140906
Football Ground,53.48195,-2.143626
Football Ground,53.48173,-2.143626
Manchester Road,53.48005,-2.145428
Droylsden Shopping Centre,53.48124,-2.145915
Droylsden Shopping Centre,53.48119,-2.145523
Fiveways Scott Road,53.48404,-2.150083
Fiveways Scott Road,53.48415,-2.150099
Springfield Road,53.48753,-2.155777
Lowfield Avenue,53.49051,-2.15826
Cambridge Road,53.49003,-2.157927
Clock House Avenue,53.49131,-2.16182
Greenside Lane,53.48933,-2.156568
Greenside Lane,53.48954,-2.155604
Surrey Avenue,53.48945,-2.154081
Surrey Avenue,53.48954,-2.153765
Shrewsbury Road,53.48843,-2.149466
Shrewsbury Road,53.48848,-2.14918
Clough Road,53.48595,-2.14578
Clough Road,53.48576,-2.145448
Market Street,53.48361,-2.142592
Sunnyside Road,53.48623,-2.146414
Sunnyside Road,53.48599,-2.146549
Ruskin Road,53.4852,-2.148385
Fiveways Byron Avenue,53.484,-2.151922
Fiveways Byron Avenue,53.48409,-2.151184
Ash Road,53.48307,-2.155143
Ash Road,53.48289,-2.155369
Lewis Road,53.4814,-2.160592
Sunnybank Road,53.48212,-2.15847
Edge Lane Metrolink Stop,53.48102,-2.165126
Manchester Road,53.48111,-2.164373
Gransmoor Road,53.475298,-2.158264
Gransmoor Road,53.47538,-2.157495
Peel Street,53.47551,-2.155311
Peel Street,53.47572,-2.154875
Grove Street,53.47609,-2.152888
Grove Street,53.4762,-2.152647
Droylsden Wharf Road,53.47708,-2.147452
Droylsden Wharf Road,53.47725,-2.147272
Canal Street,53.47877,-2.14589
Ryecroft Hall,53.47765,-2.130684
Audenshaw Metrolink Stop,53.47714,-2.133139
Rivington Grove,53.47654,-2.135382
Audenshaw Road,53.47438,-2.141281
Audenshaw Road,53.47443,-2.141703
Ashton Hill Lane,53.47375,-2.144623
Charles Avenue,53.47337,-2.145496
Fletchers Arms,53.44446,-2.115632
Fletchers Arms,53.4443,-2.115511
Wakeling Road,53.44299,-2.116953
Wakeling Road,53.44229,-2.117674
Snipe Way,53.47868,-2.12747
Snipe Way,53.47861,-2.12692
Ashton Moss,53.48067,-2.120764
Ashton Moss,53.48099,-2.11855
Guide Bridge,53.47541,-2.115536
Guide Bridge,53.475526,-2.115672
Hanover Street North,53.47471,-2.120551
Hanover Street North,53.47486,-2.120446
Greenfield Street,53.47388,-2.122854
Greenfield Street,53.4741,-2.122704
Stamford Road,53.47267,-2.124357
Crown Point,53.45624,-2.116387
Hulme Road,53.45744,-2.141601
Wilton Grove,53.45763,-2.146677
Hulme Road,53.45714,-2.141721
Hulme Road,53.45715,-2.142112
Sainsbury's,53.45619,-2.130423
Seymour Street,53.45612,-2.124203
Ann Street,53.4561,-2.118917
Crown Point,53.45611,-2.116342
Crown Point,53.45611,-2.115077
Granada Road,53.45491,-2.148083
Cemetery Road,53.4833,-2.15436
Ashwood Avenue,53.45369,-2.145956
Platt Walk,53.44713,-2.117055
Capesthorne Walk,53.44836,-2.116381
Capesthorne Walk,53.44861,-2.115674
Shoecroft Avenue,53.45031,-2.1214
Anson Road,53.45177,-2.142862
Platt Walk,53.44685,-2.116828
St Thomas More RC College,53.45089,-2.115349
Chestnut Gardens,53.45078,-2.116056
Ash Road,53.45716,-2.150425
Stamford Road,53.46682,-2.115
Stamford Road,53.46682,-2.115542
Stanhope Avenue,53.46499,-2.116773
Stanhope Avenue,53.46464,-2.116787
Hartford Street,53.4628,-2.117324
Hartford Street,53.46296,-2.117204
Frederick Street,53.46141,-2.116627
York Road,53.4596,-2.115779
Tame Street,53.46074,-2.116053
York Road,53.45902,-2.11516
Audenshaw Road,53.47153,-2.124022
Ash Street,53.47115,-2.128857
Ash Street,53.47128,-2.127501
Trafalgar Avenue,53.47276,-2.134586
Trafalgar Avenue,53.47248,-2.134103
Clarendon Road,53.47377,-2.137482
Clarendon Road,53.47372,-2.138311
Audenshaw Hall Grove,53.47408,-2.141656
Audenshaw Hall Grove,53.47393,-2.14146
Denton Station,53.45678,-2.130213
Holland Street,53.45672,-2.126177
Christ Church,53.456336,-2.121459
Heaton Street,53.456145,-2.126808
Acre Street,53.454897,-2.116715
Acre Street,53.4553,-2.117092
Cedar Grove,53.453368,-2.117404
Cedar Grove,53.45295,-2.119149
Shoecroft Avenue,53.451866,-2.118755
Shoecroft Avenue,53.45092,-2.118797
Shoecroft Avenue,53.450932,-2.119939
Shoecroft Ave (to define route),53.45105,-2.120694
Ruskin Avenue,53.44647,-2.1216
Auburn Road,53.4478,-2.121378
M67 Ebd (to define route),53.45632,-2.126492
M67 Ebd (to define route),53.45654,-2.126538
Davenport Street (To define route),53.48105,-2.16163
Davenport Street (To define route),53.48105,-2.16163
Tesco Superstore,53.47977,-2.148441
Tesco Superstore,53.47977,-2.148441
Seymour Street,53.45748,-2.122987
Lumb Lane,53.49108,-2.13472
Windmill Lane (NE Bnd),53.44702,-2.14798
Windmill Lane,53.44702,-2.14798
Yew Tree Road,53.44347,-2.121802
York Road,53.45933,-2.11513
York Road,53.45933,-2.11513
Windmill Lane,53.44873,-2.144854
Cypress Road,53.48987,-2.148416
Cypress Road,53.48987,-2.148416
Suffolk Avenue,53.49164,-2.149296
Suffolk Avenue,53.49164,-2.149296
Somerset Road,53.49136,-2.152958
Somerset Road,53.49136,-2.152958
Lancaster Road,53.49065,-2.154146
Lancaster Road,53.49065,-2.154146
Anson Road,53.450316,-2.146441
Williamson Lane,53.47732,-2.143671
Williamson Lane,53.47732,-2.143671
Ashton Hill Lane,53.47711,-2.144574
Ashton Hill Lane,53.47711,-2.144574
Ashton Hill Lane,53.47446,-2.144822
Ashton Hill Lane,53.47446,-2.144822
Anson Road,53.450468,-2.146622
Edge Lane,53.48701,-2.169309
Edge Lane,53.48701,-2.169309
Acre Street,53.454816,-2.116971
Cedar Grove,53.45371,-2.116184
Auburn Road,53.447845,-2.121107
Town Lane,53.447934,-2.122553
Williamson Lane,53.47796,-2.142604
Williamson Lane,53.47796,-2.142604
Ashton Hill Lane,53.47772,-2.144998
Ashton Hill Lane,53.47772,-2.144998
St Peter's Upper RCHS (Fairfield Road),53.47512,-2.160131
St Peter's Upper RCHS (Fairfield Road),53.47512,-2.160131
Hulme Road (Sth bnd),53.45551,-2.143025
Hulme Road,53.45551,-2.143025
M60 (to def route),53.4753,-2.126338
M60 (to def route),53.47551,-2.1256
M60 (to def route),53.46777,-2.139376
Golf Course (to def route),53.46767,-2.139089
Manchester Road (to def rte),53.48133,-2.11834
Manchester Road (to define route),53.48277,-2.115646
Manchester Road (to define route),53.48277,-2.115646
Lumb Lane (to def route),53.49757,-2.12458
Lumb Lane (to def route),53.49757,-2.12458
Lord Sheldon Way (to define route),53.48806,-2.11438
Lord Sheldon Way (to define route),53.48806,-2.11438
Lord Sheldon Way (SWbd - def rte),53.48433,-2.12097
Lord Sheldon Way (to define route),53.48433,-2.12097
Abbey Hey Lane (N bnd),53.4675,-2.155553
Cedar Grove,53.453152,-2.117403
Shoecroft Avenue,53.451938,-2.118514
Shoecraft Avenue,53.450871,-2.12014
Hulme Road (Nth bnd),53.45401,-2.143306
M60 (to def route),53.47875,-2.11889
M60 (to def route),53.46853,-2.138294
Ruskin Avenue,53.446463,-2.121837
Town Lane,53.447969,-2.12277
Victoria Street,53.454791,-2.118746
Rose Hill,53.454522,-2.121949
Windmill Lane,53.450173,-2.131545
Windmill Lane,53.450331,-2.131696
Rose Hill,53.454632,-2.121897
Victoria Street,53.454906,-2.118784
Denton Community College,53.459528,-2.123656
Printworkskeith,53.47971,-2.221696
Printworks,53.464997,-2.239558
Ashenhurst Reservoir,53.52423,-2.231421
Ashenhurst Reservoir,53.52396,-2.230832
Sandyhill Road,53.52438,-2.234439
Sandyhill Road,53.52423,-2.233608
Fairy Lane,53.49654,-2.252676
Greenland Street,53.50773,-2.245761
North Manchester General Hospital,53.51716,-2.228698
Trinity Way,53.48994,-2.246758
Trinity Way,53.48895,-2.246361
Elizabeth Street,53.49673,-2.237964
Woodlands Street,53.50945,-2.242936
Withy Gr - Printworks (Stop CA),53.48466,-2.241107
Rochdale Road,53.53164,-2.206026
Brookwood Avenue,53.51189,-2.225609
Saddlecote Close,53.51287,-2.230379
Crescent Road       Np,53.51569,-2.227454
North Manchester General Hospital,53.518575,-2.231406
North Manchester General Hospital,53.51709,-2.228879
North Manchester General Hospital,53.51531,-2.227919
Nmg Hospital           Np,53.51614,-2.227079
Strangeways,53.49153,-2.248139
New Elm Road,53.47661,-2.260346
Cannon Street - Arndale (Stop CH),53.48334,-2.239878
Cravenwood Road,53.51279,-2.242805
Calthorpe Avenue,53.50633,-2.225202
Halstock Walk,53.49857,-2.215785
Carslake Road,53.49811,-2.215601
Lashbrook Close,53.49577,-2.217579
Lashbrook Close,53.49588,-2.217535
Manchester Cathedral,53.48472,-2.245236
Sainsburys,53.53666,-2.239848
St Mary's Parsonage,53.48111,-2.249449
Hanover Street,53.48522,-2.237794
Chapel Street,53.48643,-2.244718
St Mary's Gate,53.48367,-2.246194
Marks & Spencer,53.48345,-2.243481
Printworks,53.48532,-2.241788
Victoria Station,53.48645,-2.240966
Hanover Street,53.4869,-2.240637
Granada Studios,53.47886,-2.257076
Parsonage,53.48349,-2.247052
Cannon Street (Stop TB),53.48319,-2.239245
Printworks,53.48568,-2.241821
Cannon Street - Arndale (Stop CM),53.48376,-2.241765
Cannon Street - Arndale (Stop CL),53.48362,-2.241266
Cannon Street - Arndale (Stop CK),53.48354,-2.240874
Cannon Street - Arndale (Stop CJ),53.48344,-2.240407
CANNON STREET - STAND CE,53.48382,-2.240921
CANNON STREET -,53.48374,-2.240499
Cannon Street - Arndale (Stop CF),53.48366,-2.240152
Marshall Street,53.4873,-2.23437
Hanover Street,53.48587,-2.236773
Marshall Street,53.48742,-2.233662
Withy G - Printworks (Stop CB),53.48446,-2.241015
Victoria Rail Station,53.48674,-2.240983
Withy Grove,53.48565,-2.241564
Withy Gr (Stop Nj),53.48565,-2.241564
Victoria,53.48594,-2.241355
Victoria Rail Station,53.48714,-2.240684
Piercy Street,53.48317,-2.218223
Victoria Station Approach,53.48602,-2.241973
Victoria Stn Approach,53.48669,-2.242339
Victoria Rail Station,53.48716,-2.242854
Water Street,53.4755,-2.262871
Water Street,53.47578,-2.263264
Cannon Street - Arndale (Stop CC),53.48405,-2.242068
Cannon Street - Arndale (Stop CG),53.48348,-2.239653
Ridgefield,53.48064,-2.247488
Royal Exchange,53.48204,-2.244467
St Mary's Parsonage,53.48135,-2.251636
Cannon Street - Arndale (Stop CD),53.48388,-2.241178
Victoria Rail Station,53.486142,-2.241809
Hawkeshead Road,53.50116,-2.231175
Crescent Road,53.513,-2.230692
North Manchester General Hospital,53.51587,-2.22747
Harpurhey Road,53.50914,-2.219442
Irk Bridge,53.51157,-2.219681
Waterloo Street,53.51213,-2.223197
Old Hall Lane,53.53801,-2.240158
Heaton Park Road West,53.53664,-2.242534
Heaton Park Road West,53.53645,-2.242095
Woodlands Road Metrolink Stop,53.50906,-2.233299
Woodlands Road Metrolink Stop,53.50897,-2.233434
Osborne Street,53.4938,-2.224834
Osborne Street,53.492924,-2.225297
Livesey Street,53.49145,-2.227369
Peary Street,53.4903,-2.228539
Peary Street,53.49012,-2.229186
Clive Street,53.48903,-2.23034
Suddell Street,53.48851,-2.231498
Clive Street,53.48825,-2.232054
Rochdale Road,53.50201,-2.220039
Rochdale Road,53.50242,-2.220297
Wythburn Avenue,53.50253,-2.225288
Wythburn Avenue,53.50291,-2.225998
Broadoak Court,53.50371,-2.232033
Broadoak Court,53.50403,-2.233558
Shirley Road,53.50612,-2.237851
Albyns Avenue,53.50787,-2.240877
Cheetham Hill Road,53.50886,-2.241546
Bignor Street,53.5035,-2.23553
Bignor Street,53.50362,-2.235787
Balmfield Street,53.50148,-2.235941
Balmfield Street,53.50062,-2.236343
Boyle Street,53.50042,-2.235
Queens Road Bus Depot,53.50068,-2.233524
Clibran Street,53.50163,-2.228783
Smedley Road,53.50219,-2.226025
Smedley Road,53.50179,-2.227606
Clibran Street,53.50133,-2.229774
Queens Road Bus Depot,53.50054,-2.233599
Cheetham Hill Road,53.49974,-2.237454
Cheetham Hill Road,53.49985,-2.237409
Sherborne Street,53.49953,-2.241116
Waterloo Road,53.50107,-2.2442
Park Place,53.49056,-2.241246
Park Place,53.49073,-2.241397
St Chad's Catholic Church,53.49226,-2.24026
St Chad's Catholic Church,53.49267,-2.240263
Derby Street,53.49359,-2.239514
Derby Street,53.49449,-2.239218
Derby Street,53.49485,-2.239024
Elizabeth Street,53.49638,-2.237902
Queens Road,53.49942,-2.236171
Whitley Road,53.49606,-2.222435
Whitley Road,53.49491,-2.223589
Elvate Crescent,53.49819,-2.247756
Elvate Crescent,53.49807,-2.247665
Old Market Street,53.52244,-2.215786
Victoria Station,53.48732,-2.24082
Ash Street,53.50891,-2.216938
Football Museum,53.48621,-2.24211
Saddlecote Close,53.51289,-2.230591
Thornton Street North,53.49584,-2.220444
Teignmouth Street,53.49557,-2.220081
Bank House Road,53.5273,-2.224921
Pike Fold Primary School,53.52271,-2.222755
Pike Fold Primary School,53.52259,-2.222679
Walker Road,53.53274,-2.209728
Heathbank Road,53.53328,-2.220714
Heathbank Road,53.53313,-2.220743
Mirfield Road,53.53119,-2.219526
Mirfield Road,53.53095,-2.219254
Co-op Academy Manchester,53.528232,-2.222507
French Barn Lane,53.52827,-2.222166
Bank House Road,53.52702,-2.225765
Wroxham Road,53.52803,-2.22657
Wroxham Road,53.52813,-2.227294
Carley Grove,53.52913,-2.22828
Carley Grove,53.52923,-2.228537
Bowfell Grove,53.5279,-2.22939
Castlemere Road,53.52729,-2.227938
Castlemere Road,53.52689,-2.226639
Old Market Street,53.52238,-2.215936
Sandy Brow,53.52303,-2.216377
Victoria Rail Station,53.48727,-2.240323
Rochdale Road,53.50825,-2.218126
Rochdale Road,53.50832,-2.21787
Harpurhey Road,53.50914,-2.219261
Irk Bridge,53.51161,-2.219515
Waterloo Street,53.51223,-2.223168
Chataway Road,53.51148,-2.224054
Chataway Road,53.51031,-2.225314
Amwell Street,53.50886,-2.226648
Amwell Street,53.50848,-2.226797
Raja Close,53.50642,-2.228445
Raja Close,53.50599,-2.228789
Brookwood Avenue,53.5121,-2.226424
Charminster Drive,53.51237,-2.231824
Manchester Opera House,53.47849,-2.250911
Manchester Opera House,53.47863,-2.251183
Granada Studios,53.47934,-2.255376
Granada Studios,53.47898,-2.25673
Old Hall Lane,53.53888,-2.239197
Museum Of Science and Industry,53.47707,-2.258391
Barton Street,53.475891,-2.252128
Barton Street,53.47616,-2.252717
Museum of Science and Industry,53.47704,-2.257516
Beckenham Road,53.50777,-2.242097
Hightown Post Office,53.50656,-2.242739
Hightown Post Office,53.50582,-2.24281
Brentfield Avenue,53.50455,-2.243556
Brentfield Avenue,53.5047,-2.243271
Alderglen Road,53.50233,-2.244885
Alderglen Road,53.50204,-2.244854
Barrow Hill Road,53.49956,-2.246256
Barrow Hill Road,53.49921,-2.246345
Hodgson Street,53.49655,-2.249118
Cheetwood Primary School,53.49609,-2.249658
Crumpsall Lane,53.51664,-2.236085
Crumpsall Park,53.515,-2.235005
Crumpsall Park,53.514766,-2.234673
Ash Tree Road,53.51273,-2.235174
Ash Tree Road,53.51259,-2.235445
Abraham Moss Centre,53.51221,-2.23781
Abraham Moss Centre,53.51239,-2.237359
Humphrey Street,53.51241,-2.240329
Arlington Street,53.51228,-2.243164
Cheetham Hill Shopping Centre,53.51391,-2.245374
Middleton Road,53.52564,-2.247343
Middleton Road,53.52572,-2.246966
Ellbourne Road,53.52494,-2.242452
Ellbourne Road,53.52471,-2.240037
Higher Blackley Community Centre,53.53357,-2.224532
Higher Blackley Community Centre,53.53337,-2.224818
Tweedle Hill Road,53.53325,-2.228936
Tweedle Hill Road,53.5332,-2.229554
Broomhall Road,53.534048,-2.233708
George Street North,53.51422,-2.246703
Copthall Lane,53.51133,-2.244485
Jury Street,53.49382,-2.250187
Strangeways,53.49188,-2.248729
Broughton Lane,53.49519,-2.251673
Fairy Lane,53.49683,-2.253175
Catherine Road,53.51636,-2.249279
Ardern Road,53.51861,-2.248871
Wilton Road,53.52207,-2.249162
Bowker Vale Metrolink Stop,53.5246,-2.248785
Blackley New Road,53.52637,-2.247905
Sheepfoot Lane,53.528251,-2.246921
Victoria Avenue,53.5321,-2.245269
Victoria Avenue,53.53112,-2.245323
Sheepfoot Lane,53.52798,-2.246844
Blackley New Road,53.52611,-2.247738
Bowker Vale Metrolink Stop,53.52403,-2.248872
Wilton Road,53.52226,-2.248952
Ardern Road,53.51871,-2.2486
Catherine Road,53.51674,-2.248709
Polygon Road,53.51827,-2.247391
Polygon Road,53.51839,-2.247859
Crumpsall Metrolink Stop,53.51795,-2.24222
Crumpsall Metrolink Stop,53.51785,-2.24229
The Cleveland,53.51767,-2.239379
The Cleveland,53.51762,-2.238655
Delaunays Road,53.51723,-2.236782
Crumpsall Lane,53.51714,-2.235832
North Manchester General Hospital,53.51918,-2.231107
North Manchester General Hospital,53.519,-2.231302
Crumpsall Vale,53.52127,-2.227574
Crumpsall Vale,53.5224,-2.226932
Humphrey Street,53.51225,-2.240027
Broomhall Road,53.53421,-2.23386
Caldecott Road,53.53405,-2.237087
Caldecott Road,53.53382,-2.237418
Glenbrook Road,53.53335,-2.240312
Glenbrook Road,53.533,-2.241306
Lakeside Rise,53.52443,-2.23812
Lakeside Rise,53.52456,-2.237894
Bridgnorth Road,53.52526,-2.236887
Bridgnorth Road,53.52558,-2.236557
Bantry Drive,53.52662,-2.233622
Bantry Drive,53.52717,-2.233519
Inchcape Drive,53.52861,-2.234402
Inchcape Drive,53.529,-2.233997
Crab Lane,53.52872,-2.232306
Crab Lane,53.52871,-2.232034
Beldon Road,53.52864,-2.23048
Wavertree Road,53.53052,-2.227277
Wavertree Road,53.53074,-2.227384
Longhurst Road,53.53255,-2.228616
Longhurst Road,53.53253,-2.228359
Plant Hill Road,53.53375,-2.222919
Plant Hill Road,53.53435,-2.220478
Cecil Road,53.53389,-2.217096
Cecil Road,53.53398,-2.216749
Hill Lane,53.53341,-2.2113
Hill Lane,53.5335,-2.213428
Rochdale Road,53.53182,-2.206027
Newcliffe Road,53.53117,-2.202403
Newcliffe Road,53.53087,-2.201482
Victoria Avenue,53.53178,-2.208924
North Manchester General Hospital,53.51882,-2.230879
Woodhalt Road,53.51068,-2.238661
Woodhalt Road,53.51021,-2.237603
Cardinal Street,53.50937,-2.234748
Cardinal Street,53.50938,-2.234371
Harland Drive,53.50778,-2.231543
Harland Drive,53.50759,-2.23112
Crumpsall Metrolink Stop,53.51724,-2.241382
Etherstone Street,53.51383,-2.223598
Slack Road,53.51649,-2.220702
Andrew Road,53.51841,-2.21946
Westgate Avenue,53.52248,-2.219451
Lion Street,53.52316,-2.219047
Chapel Lane,53.52261,-2.224791
Chapel Lane,53.52248,-2.224896
Lion Street,53.52295,-2.220283
Westgate Avenue,53.52232,-2.219254
Andrew Road,53.51846,-2.219204
Slack Road,53.51578,-2.221694
Etherstone Street,53.51426,-2.223329
Charminster Drive,53.51264,-2.22922
Squire Road,53.50819,-2.242612
Copthall Lane,53.51053,-2.244239
Woodlands Street,53.50866,-2.242389
Albyns Avenue,53.50763,-2.2408
Shirley Road,53.50604,-2.238017
Victoria Avenue,53.5317,-2.208621
Hilldale Avenue,53.52959,-2.210648
Hilldale Avenue,53.52897,-2.210825
Dam Head Medical Centre,53.52716,-2.2124
Dam Head Medical Centre,53.52599,-2.212908
Lion Brow,53.52487,-2.214471
Lion Brow,53.52514,-2.214442
Charlestown Road,53.52277,-2.215621
Charlestown Road,53.52086,-2.21436
Old Road,53.51842,-2.213307
Old Road,53.51834,-2.21314
Parkmount Road,53.51739,-2.213452
Parkmount Road,53.51616,-2.212768
Factory Lane,53.51453,-2.213016
Moston Lane,53.5127,-2.213821
Moston Lane,53.5127,-2.213821
Factory Lane,53.51264,-2.213866
Oak Bank,53.51129,-2.215156
Oak Bank,53.51097,-2.215124
Ash Street,53.50917,-2.216487
Kingsbridge Road,53.50736,-2.217654
Kingsbridge Road,53.50657,-2.217605
Lathbury Road,53.50563,-2.217932
Lathbury Road,53.50438,-2.217458
Appian Way,53.49908,-2.255148
Park View,53.50305,-2.218461
Park View,53.50285,-2.21858
Queens Road,53.501152,-2.218859
Paget Street,53.49942,-2.21995
Paget Street,53.49823,-2.22032
Lansdowne Road,53.514446,-2.237536
Lansdowne Road,53.5145,-2.23728
Meade Hill Road,53.52613,-2.250468
Meade Hill Road,53.52613,-2.250468
Heaton Park Road,53.536105,-2.235293
Heaton Park Road,53.53596,-2.233643
Parksway,53.536771,-2.233965
Parksway,53.53727,-2.233997
Finningley Road,53.537294,-2.233123
Finningley Road,53.53721,-2.232518
Torcross Road,53.536315,-2.232755
Torcross Road,53.53559,-2.232162
Boyle Street,53.50384,-2.233722
Boyle Street,53.50384,-2.233722
New Bridge Street (W bnd to def route),53.48901,-2.243392
New Bridge St(to def route),53.48901,-2.243392
Heywood Street,53.50472,-2.239909
Heywood Street,53.50472,-2.239909
Balmfield Street,53.501,-2.239662
Balmfield Street,53.501,-2.239662
Middleton Old Road (Sbd),53.52298,-2.216226
Cardinal Street (to def route),53.50416,-2.234403
Cardinal Street (to def route),53.50416,-2.234403
Chapel Lane,53.5268,-2.226367
Chapel Lane,53.524662,-2.225722
Millbrow,53.52267,-2.224218
Fennel Street (westbound),53.48537,-2.243522
Dantzic Street (To define route),53.48577,-2.239515
Dantzic Street (To define route),53.48577,-2.239515
Long Millgate (to define routes),53.48556,-2.243568
Heath Street,53.509476,-2.246314
Cheetham Hill Road,53.50993,-2.244175
Moss Bank,53.51336,-2.239732
Moss Bank,53.51336,-2.239732
Smedley Lane,53.50608,-2.228156
Broughton Lane,53.495568,-2.255906
Bury New Road,53.49491,-2.251535
Greenhill Road (to def rte),53.51153,-2.239178
Greenhill Road (to def rte),53.51153,-2.239178
St Mary's Gate (to define route),53.48328,-2.245183
Munn Road,53.534472,-2.228249
Munn Road,53.5338,-2.226389
Acre Top Road,53.53375,-2.229663
Acre Top Road,53.53399,-2.230147
Seymour Road,53.51501,-2.245728
King David School,53.51498,-2.245697
Queens Road (To Def Rte),53.5023,-2.221563
Collyhurst Road,53.49389,-2.22904
Collyhurst Road,53.49389,-2.22904
Dantzic Street,53.49187,-2.233039
Dantzic Street,53.49187,-2.233039
Corporation Street (to def route),53.48933,-2.237426
Corporation Street (to def route),53.48933,-2.237426
Dudley Street,53.504846,-2.244538
Waterloo Road,53.50499,-2.24383
New Bridge Street (to def route),53.48801,-2.247275
New Bridge Street (to def route),53.48801,-2.247275
Heywood Street,53.50262,-2.239671
Heywood Street,53.50262,-2.239671
Rectory Road,53.51743,-2.242967
Rectory Road,53.51743,-2.242967
Greenhill Road,53.5088,-2.24144
Arlington Street,53.51255,-2.242894
Arlington Street,53.51368,-2.24296
Cravenwood Road,53.5143,-2.240793
Cravenwood Road,53.5143,-2.240793
Bennett Road,53.51754,-2.241701
Bennett Road,53.51754,-2.241701
Holland Road,53.52128,-2.247197
Holland Road,53.52128,-2.247197
Wilton Road,53.522,-2.248182
Wilton Road,53.522,-2.248182
Bank Road,53.51938,-2.239765
Bank Road,53.51938,-2.239765
Kearsley Road,53.51971,-2.235454
Kearsley Road,53.51971,-2.235454
Tansley Road,53.51929,-2.234637
Tansley Road,53.51929,-2.234637
Ingleton Road,53.51906,-2.23358
Ingleton Road,53.51906,-2.23358
Oakworth Street,53.52324,-2.220586
Oakworth Street,53.52324,-2.220586
Co-op Academy Manchester,53.52937,-2.221357
Oakworth Street,53.52522,-2.219707
French Barn Lane,53.52419,-2.218721
French Barn Lane,53.52419,-2.218721
Cecil Road,53.53202,-2.21419
Heathbank Road,53.53333,-2.217033
Heathbank Road,53.53333,-2.217033
Glenbrook Road,53.535213,-2.239855
Glenbrook Road,53.53668,-2.239577
Balmfield Street,53.50092,-2.236661
Balmfield Street,53.50092,-2.236661
Boyle Street,53.5007,-2.234384
Boyle Street,53.5007,-2.234384
Heath Street,53.509655,-2.246345
Heath Street,53.50952,-2.248757
Finningley Road,53.536548,-2.231262
Finningley Road,53.53657,-2.231172
Collyhurst Road,53.4987,-2.224046
Collyhurst Road,53.4987,-2.224046
Collyhurst Road,53.50026,-2.221748
Collyhurst Road,53.50026,-2.221748
Wilton Road,53.52196,-2.241892
Wilton Road,53.52196,-2.241892
Hill Lane,53.52705,-2.214919
Hill Lane,53.52705,-2.214919
Hill Lane,53.5298,-2.214526
Hill Lane,53.5298,-2.214526
Cardinal Street,53.50811,-2.233972
Cardinal Street,53.50811,-2.233972
Woodlands Road,53.51061,-2.242159
Miller Street (SEbnd - To define route ),53.48712,-2.238272
Miller Street ( To define route ),53.48712,-2.238272
Fennel Street,53.4856,-2.244141
Fennel Street,53.4856,-2.244141
Deansgate (to define route),53.48419,-2.245685
Deansgate (to define route),53.48419,-2.245685
Victoria Street (Nbd to define route),53.48508,-2.245208
Victoria Street (to define route),53.48508,-2.245208
Corporation Street (Sbd to define route),53.4842,-2.242837
Cheetham Hill Road,53.51117,-2.24459
Thomas Street,53.51348,-2.244754
Crescent Road,53.51239,-2.242455
M60 (to define route),53.53959,-2.235066
M60 (to define route),53.53959,-2.235066
Corporation Street (Nbd to define route),53.48489,-2.242283
Corporation Street (to define route),53.48461,-2.242568
Museum of Transport,53.50288,-2.234215
Corporation Street (to def route),53.48677,-2.240787
Great Horrocks,53.4946,-2.235948
Red Bank (to define route),53.49017,-2.239028
New Quay Street (NWbnd to define route),53.47956,-2.25485
New Quay Street (to define route),53.47956,-2.25485
Gartside Street (to define route),53.48087,-2.252296
Gartside Street (to define route),53.48087,-2.252296
Gartside Street (to define route),53.4794,-2.252965
Cooper Lane,53.53557,-2.21804
Our Lady's RC High School,53.53554,-2.21801
Miller Street (NWbd - to def rte),53.48648,-2.236325
Seymour Road,53.51511,-2.245019
Heaton Park Road,53.536103,-2.235265
Parksway,53.536744,-2.234206
Finningley Road,53.537411,-2.233184
Torcross Road,53.53636,-2.232559
Finningley Road,53.536677,-2.231294
New Bridge Street (E bnd To Def Rte),53.48864,-2.244957
Chapel Lane,53.524653,-2.225496
Acre Top Road,53.533723,-2.22992
Munn Road,53.534616,-2.228265
Glenbrook Road,53.535195,-2.240097
Go North West Depot,53.50071,-2.234323
Chain Road,53.535046,-2.214266
Museum of Transport,53.50301,-2.234306
Our Lady's RC High School,53.536982,-2.21758
Chain Road,53.535137,-2.21401
Cooper Lane,53.535489,-2.217859
Tamworth Avenue,53.54289,-2.27349
Tamworth Avenue,53.54289,-2.27349
Tesco,53.53597,-2.290344
Stanhope Avenue,53.53562,-2.287535
Besses o'th' Barn Metrolink Stop,53.54139,-2.286593
Moor Lane,53.5146,-2.283562
The Woodthorpe,53.52375,-2.263441
Links View,53.51847,-2.288082
Beckley Avenue,53.52074,-2.281084
Prestwich Hills,53.52512,-2.282501
Spring Vale,53.519808,-2.284517
Myrtle Bank,53.51514,-2.284169
Wentworth Avenue,53.54202,-2.310062
Butterstile Lane,53.51968,-2.29079
Webster Grove,53.52038,-2.29259
Webster Grove,53.52166,-2.293096
Woodward Road,53.52209,-2.293431
Cawley Avenue,53.52263,-2.293118
Carr Avenue,53.5228,-2.293406
Besses o'th' Barn Metrolink Stop,53.54234,-2.287112
Besses o'th' Barn Metrolink Stop,53.54272,-2.286436
Balmoral Avenue,53.54296,-2.285442
Mayfair Avenue,53.5431,-2.289577
Clyde Avenue,53.54144,-2.290124
Clyde Avenue,53.54047,-2.289499
Besses Junction,53.54322,-2.290393
Ferndene Road,53.54141,-2.269496
Ferndene Road,53.54102,-2.270082
Thornley Road,53.54303,-2.267862
Thornley Road,53.54301,-2.268073
Prestwich Hills,53.52522,-2.282049
Longfield Centre,53.53271,-2.28529
Besses o'th' Barn Metrolink Stop,53.54182,-2.287004
Kersal Road,53.516797,-2.289378
Branksome Avenue,53.52916,-2.280748
Crescent Avenue,53.52153,-2.274317
Woodhill Drive,53.523,-2.275564
Kelvin Avenue,53.5414,-2.235001
Conway Avenue,53.54103,-2.289035
Polefield Grove,53.53856,-2.273039
Polefield Grove,53.53857,-2.272828
Perrymead,53.5374,-2.274329
Willow Road,53.537084,-2.28845
Stanhope Avenue,53.53599,-2.287326
Heywood Road,53.53728,-2.275566
Polefield Hall Road,53.53822,-2.278575
Polefield Hall Road,53.53864,-2.279211
Guest Road,53.53909,-2.280527
Butterstile Close,53.51805,-2.289949
Sandy Lane,53.52318,-2.287843
Shrewsbury Road,53.52528,-2.279485
Shrewsbury Road,53.52544,-2.278838
Crescent Avenue,53.52128,-2.273742
King's Road,53.51835,-2.271627
King's Road,53.51934,-2.272267
Woodhill Drive,53.52287,-2.275774
Bishops Road,53.5246,-2.265166
Bishops Road,53.52476,-2.265409
Ostrich Lane,53.52493,-2.271443
Ostrich Lane,53.52511,-2.272304
Rectory Lane,53.52928,-2.274096
Heaton Street,53.53118,-2.274244
Heaton Street,53.53158,-2.274352
Heys Road,53.53395,-2.274352
Heys Road,53.53453,-2.274251
Glebelands Road,53.5364,-2.274806
Heywood Road,53.53674,-2.273465
Orange Hill Road,53.53487,-2.268474
Kenyon Lane,53.53303,-2.267497
Heaton Park Metrolink Stop,53.52976,-2.266315
St Monica's RC High School,53.52749,-2.266165
King's Road,53.52084,-2.260874
Ravensway,53.51838,-2.258371
King's Road,53.5211,-2.261494
The Woodthorpe,53.52427,-2.264153
Heaton Park Metrolink Stop,53.53043,-2.266047
Orange Hill Road,53.53433,-2.267792
St Margaret's Cross,53.53623,-2.270339
Bury Old Road,53.53675,-2.270779
Heaton Park,53.5379,-2.267769
Roseland Drive,53.53901,-2.268018
Beckley Avenue,53.52024,-2.281971
Spring Vale,53.51958,-2.285073
Butt Hill Road,53.52267,-2.277371
Butt Hill Road,53.52191,-2.277713
Butterstile Lane,53.52484,-2.277763
St Mary's Park,53.52814,-2.280877
St Mary's Road,53.52942,-2.282122
Red Lion,53.53138,-2.284021
Longfield Centre,53.5332,-2.285723
Longfield Centre,53.53362,-2.28301
Clarks Hill,53.53146,-2.282136
St Mary's Road,53.5295,-2.276707
St Mary's Road,53.5294,-2.276797
Heywood Road,53.52893,-2.274546
Heywood Road,53.52862,-2.273352
Beaufort Street,53.52936,-2.268816
Heaton Park Metrolink Stop,53.53016,-2.266725
Heaton Park Metrolink Stop,53.53018,-2.266996
Beaufort Street,53.52912,-2.269614
Rectory Lane,53.52814,-2.273847
Park View Road,53.52602,-2.274392
Park View Road,53.52628,-2.274514
Overbrook Drive,53.524071,-2.275873
Overbrook Drive,53.52389,-2.275841
Longfield Centre,53.5324,-2.28471
Red Lion,53.53066,-2.283096
St Mary's Park,53.5274,-2.279952
Butterstile Lane,53.52531,-2.277917
Ladythorne Drive,53.52052,-2.284341
Ladythorne Drive,53.52126,-2.28516
Sandy Meade,53.52362,-2.288147
Carlford Grove,53.52394,-2.291347
Gale Road,53.52306,-2.291402
Butterstile Close,53.51825,-2.290388
Chapel Road,53.51652,-2.287134
Chapel Road,53.51656,-2.287753
Myrtle Bank,53.51524,-2.284471
Myrtle Bank,53.51529,-2.284336
Walker Avenue,53.5399,-2.283686
Walker Avenue,53.54016,-2.284019
Mayfair Avenue,53.5424,-2.288501
Wentworth Avenue,53.54209,-2.310248
Wentworth Avenue,53.541903,-2.310422
Woodhall Avenue,53.54097,-2.307248
Woodhall Avenue,53.54115,-2.307129
Middleton Road,53.54253,-2.234268
Brooklands Road,53.52193,-2.257306
Brooklands Road,53.52193,-2.257306
Polefield Circle,53.53863,-2.275635
Polefield Circle,53.53863,-2.275635
Woodward Road (Sbd),53.52039,-2.292258
Heys Road,53.534067,-2.277747
Heys Road (Prestwich High Sch),53.53413,-2.277567
Fairfax Road,53.53421,-2.283192
Fairfax Road,53.53408,-2.283873
St Ann's Road,53.527184,-2.28695
St Ann's Road,53.52738,-2.283255
Shelley Road,53.525867,-2.292435
Shelley Road,53.52578,-2.292748
Scott Road,53.525392,-2.291778
Scott Road,53.52497,-2.29149
Lowther Road,53.52404,-2.291122
Lowther Road (Ebd),53.52404,-2.291107
Butterstile Lane (to def rte),53.52322,-2.287481
Butterstile Lane (to def rte),53.52322,-2.287481
Rainsough Brow (southbound),53.51702,-2.289143
Bury Old Road,53.53546,-2.269564
Bury Old Road,53.53546,-2.269564
Butterstile Lane,53.51958,-2.290774
Polefield Circle,53.53989,-2.275492
Polefield Circle,53.53989,-2.275492
Nursery Road,53.53619,-2.283012
Nursery Road,53.53619,-2.283012
Poppythorn Lane,53.53522,-2.283196
Poppythorn Lane,53.53471,-2.282987
Prestwich Tesco,53.53599,-2.290283
Prestwich Tesco,53.53599,-2.290283
Bury Old Road,53.53961,-2.283352
Bury Old Road,53.53961,-2.283352
Sliproad to M62 (westbound)(to def rte),53.53805,-2.290675
bound)(to def rte),53.53863,-2.291101
Bnd),53.51737,-2.289221
Shelley Road,53.52685,-2.289436
Shelley Road,53.52673,-2.289285
Lowther Road (to def rte),53.5238,-2.292327
Lowther Road (to def rte),53.5238,-2.292327
Kershaw Avenue,53.52235,-2.293599
Kershaw Avenue,53.52235,-2.293599
Kershaw Avenue,53.52199,-2.293098
Kershaw Avenue,53.52199,-2.293098
Parkview Road,53.52635,-2.277984
Parkview Road,53.52635,-2.277984
Heywood Road (to def rte),53.52511,-2.274808
Heywood Road (to def rte),53.52511,-2.274808
Kings Road,53.51882,-2.271766
Kings Road,53.51882,-2.271766
Mowbray Avenue,53.51937,-2.267169
Mowbray Avenue,53.51937,-2.267169
Albert Avenue,53.51817,-2.267087
Albert Avenue,53.51817,-2.267087
Kings Road,53.52038,-2.260479
Kings Road,53.52038,-2.260479
Bishops Road,53.52014,-2.265455
Bishops Road,53.52014,-2.265455
St Mary's Road (to def rte),53.5291,-2.28025
St Mary's Road (to def rte),53.5291,-2.28025
Bury Old Road,53.53778,-2.276444
Bury Old Road,53.53778,-2.276444
Polefield Circle,53.53879,-2.273946
Polefield Circle,53.53879,-2.273946
Guest Road,53.5386,-2.279995
Guest Road,53.5386,-2.279995
Poppythorn Lane,53.53677,-2.281507
Poppythorn Lane,53.53677,-2.281507
Polefield Road,53.540365,-2.272654
Heywood Road,53.53976,-2.271945
Sheepfoot La,53.5274,-2.254519
Sheepfoot La,53.5274,-2.254519
Sheepfoot Lane,53.52539,-2.261294
Sheepfoot Lane,53.52539,-2.261294
M62 Slip Road (to def rte),53.53963,-2.288316
Sandgate Road,53.54199,-2.272986
M62 slip Road (to def rte),53.53896,-2.287708
Milton Road,53.53443,-2.268954
Milton Road,53.53443,-2.268954
Orange Hill Road,53.5346,-2.268352
Orange Hill Road,53.5346,-2.268352
Brooklands Road,53.52221,-2.25319
Brooklands Road,53.52221,-2.25319
Butterstile Lane,53.52057,-2.289026
Butterstile Lane,53.5217,-2.288557
Sheepfoot Lane,53.52855,-2.249819
Sheepfoot Lane,53.52855,-2.249819
Cuckoo Lane,53.5404,-2.276395
Cuckoo Lane,53.53941,-2.278884
M60 (to define route),53.53444,-2.309962
Cuckoo Lane,53.54032,-2.276304
Cuckoo Lane,53.54014,-2.276882
Queens Drive,53.51991,-2.270114
Queens Drive,53.51991,-2.270114
Fairway,53.52159,-2.263971
Fairway,53.52159,-2.263971
St Monica's RC High School,53.52605,-2.26538
Heaton Park,53.52782,-2.255275
Fairfax Road,53.534286,-2.283242
Heys Road,53.534205,-2.276058
St Ann's Road,53.52729,-2.28687
Shelley Road,53.525941,-2.292414
Scott Road,53.525405,-2.291649
Poppythorn Lane,53.535227,-2.28293
Polefield Road,53.540488,-2.272502
Butterstile Lane,53.521294,-2.288861
Mainway East,53.53884,-2.175431
Kirkway,53.54322,-2.191807
Bonny Brow Street,53.54276,-2.229863
The Glen,53.53813,-2.18241
Haslam Street,53.54268,-2.176322
Malvern Road,53.53464,-2.194589
Malvern Road,53.53493,-2.193957
Green Lane,53.54253,-2.172353
Conway Close,53.54254,-2.19375
Kingsway,53.539693,-2.193481
Mossway,53.53513,-2.206194
Conway Close,53.54289,-2.193631
Kingsway,53.54092,-2.193653
Mainway,53.53774,-2.193713
Mainway,53.53662,-2.193527
Upton Close,53.53593,-2.192634
Upton Close,53.536,-2.191307
Leominster Road,53.53706,-2.187026
Leominster Road,53.53778,-2.187014
Kingsway,53.5401,-2.186466
Hardfield Road,53.54071,-2.187857
Hardfield Road,53.54063,-2.187434
Colwyn Avenue,53.54071,-2.190513
Colwyn Avenue,53.54061,-2.191207
Gloucester Road,53.54071,-2.192822
Apple Way,53.54058,-2.185322
Wince Close,53.53902,-2.182795
Wince Close,53.53913,-2.183067
Lincoln Road,53.53742,-2.180962
Lincoln Road,53.53779,-2.179847
Greengate,53.53877,-2.176245
Greengate,53.53897,-2.175974
Lees Brewery,53.54159,-2.173858
Haslam Street,53.5424,-2.175476
Woodlands Way,53.53862,-2.202786
Mossway,53.53486,-2.205997
Mainway,53.53656,-2.204843
Mainway,53.53711,-2.204137
Manor Road,53.53723,-2.199128
Kirkway,53.53724,-2.194677
Manor Road,53.53747,-2.198269
Manchester New Road,53.53745,-2.203248
Woodlands Way,53.53976,-2.202037
Hall Drive,53.54037,-2.20124
Hall Drive,53.541101,-2.200927
Alkrington Hall Road North,53.542486,-2.200149
Kelvin Avenue,53.54227,-2.233014
Bonny Brow Street,53.54252,-2.230601
Evesham Road,53.534885,-2.187454
Evesham Road,53.53508,-2.193339
Moss Lane (Alkrington),53.5351,-2.201411
Moss Lane (Alkrington),53.5351,-2.201411
Duffield Road,53.533,-2.201235
Duffield Road,53.533,-2.201235
Andover Avenue,53.534947,-2.181918
Andover Avenue,53.53489,-2.182204
Andover Avenue,53.536339,-2.1831
Evesham Road,53.53577,-2.183173
Lincoln Road,53.536037,-2.180625
Lincoln Road,53.53548,-2.181029
Andover Avenue,53.53404,-2.181174
Andover Avenue,53.53387,-2.181007
Evesham Road,53.534732,-2.187454
Evesham Road,53.53484,-2.18851
Naunton Road,53.54285,-2.187761
Naunton Road,53.54285,-2.187761
Kingsway (Wbd - to def.route),53.54062,-2.192399
